id,place_name,average_rating,granular_category,lat,lng
1,lion's den,3,zoo,24.6781717,46.7371186
2,Riyadh zoo enchanted forest,4.5,zoo,24.6772285,46.7364923
3,Uzzal Zoo,3,zoo,24.6732502,46.7099585
4,BLVD Forest ,4.2,zoo,24.7785879,46.5996631
5,Giraffe/zebra zone,4.3,zoo,24.6774256,46.7360008
6,Elephant zone - Riyadh Zoo,4.4,zoo,24.6768901,46.738203
7,Tiger zone - Riyadh Zoo,4.3,zoo,24.6781572,46.7369354
8,King Salman Park,4.2,park,25.0046203,46.6008997
9,The Ranch - Nature Escape,5,zoo,24.9164423,46.8419653
10,Riyadh Zoo,4.2,zoo,24.675257,46.7375276
11,Royal Mall,3.9,shopping_mall,24.7236772,46.6649343
12,Alia Plaza,4.2,shopping_mall,24.8089389,46.6692442
13,Ala Kaifak,3.9,shopping_mall,24.7849158,46.750694
14,Cenomi Al Hamra Mall,4.4,shopping_mall,24.774327,46.776434
15,Kingdom Centre,4.4,shopping_mall,24.7122005,46.6755206
16,Tafaseel Center,3.9,shopping_mall,24.6951192,46.6696358
17,Sahara Mall,4,shopping_mall,24.7400274,46.682203
18,Riyadh Gallery Mall,4.3,shopping_mall,24.7436082,46.6580521
19,Centria Mall,4.3,shopping_mall,24.6975045,46.6839733
20,Saniya Center,3.6,shopping_mall,24.72639,46.7788528
21,Al Nada Plaza,4.1,shopping_mall,24.8061022,46.6927943
22,Cenomi Tala Mall,4.1,shopping_mall,24.771959,46.668189
23,Cenomi Al Nakheel Mall,4.4,shopping_mall,24.767943,46.714936
24,Yasmin Plaza,4.2,shopping_mall,24.823449,46.6557759
25,Othaim Mall,4.3,shopping_mall,24.6856632,46.7754282
26,The Boulevard Riyadh,4.2,shopping_mall,24.7505625,46.6134375
27,AlMaather Square,4.3,shopping_mall,24.6644158,46.6826704
28,Hittin Square,4.2,shopping_mall,24.7529087,46.6098752
29,sky mall,3.7,shopping_mall,24.6929931,46.8084868
30,Alshorog park ,4.4,park,24.6766878,46.7099543
31,Fog Garden,4.2,park,24.674793,46.7016682
32,Wadi Namar,4.6,park,24.5733236,46.6896194
33,Riyad karsi farm,3,park,24.7135517,46.6752957
34,Al Shaeeb Park,4.1,park,24.571981,46.6883414
35,Children's Hospital Garden,4.1,park,24.7537155,46.860528
36,The Big Brown,3,park,24.7135517,46.6752957
37,MC park,3.5,park,24.7549864,46.8668359
38,Wadi Namar Street View,4.6,park,24.5703869,46.6727275
39,King Salman Science Oasis,4.3,park,24.7042283,46.7000134
40,Al Wizarat Park,3,park,24.6761033,46.7101383
41,KSAU-HS HOUSING PARK,3,park,24.762463,46.8682223
42,Hanifa Valley,4.2,park,24.5515014,46.7417103
43,Valley area,5,park,24.5730463,46.6844149
44,Bader district third park,3.8,park,24.5545726,46.7029177
45,Water Stream Area,4.2,park,24.5808658,46.6971912
46,Wadi hanifa,3,park,24.580381,46.6975339
47,Badr Fourth Park,4,park,24.5637374,46.7138393
48,Green land,4,park,24.7135517,46.6752957
49,Badr Third Park,5,park,24.5545215,46.7029965
50,Wadi Namar Dam,4.6,park,24.5745828,46.6861415
51,Wadi Namar,4,park,24.5749572,46.6878102
52,Wadi Namar Start point upperside,5,park,24.5729454,46.6860564
53,Lake Park Namar Dam,4.2,park,24.5709336,46.6733434
54,Al-Safwa Garden,3.7,park,24.7457642,46.8475109
55,Park,4.5,park,24.7462205,46.8482197
56,Garden Shubra First,3.9,park,24.5849376,46.6824632
57,Ishbiliyah 2nd park,4.1,park,24.7943169,46.7894968
58,Square Casablanca ALdar AlBaida,4,park,24.5630389,46.7759282
59,Third-Shifa neighborhood park,4.1,park,24.5605992,46.7037901
60,"General Al Khaleej dist, Park",3.7,park,24.7748141,46.7924663
61,Ishbiliyah Park,4,park,24.8034424,46.8081824
62,Alsofwah Park,2.8,park,24.7449089,46.8459372
63,Alkaleej District Park,3.8,park,24.7819923,46.8241015
64,Almaizilah Park,4.3,park,24.7797158,46.8353622
65,Al-Muaizilah District Park,4.2,park,24.7797486,46.8351307
66,Al Nahda Second Park,4,park,24.7761372,46.828463
67,Small Children Park,4.1,park,24.6774369,46.7201622
68,Olaya park,4.1,park,24.705392,46.7091565
69,Olaya park,3,park,24.7052982,46.708884
70,"Al Olaya, Park",4.2,park,24.680487,46.6825655
71,Garden and Playground,4,park,24.5816011,46.7718095
72,Spring Park,3.7,park,24.5776106,46.7829998
73,Al-Amariya view,3.3,park,24.7135517,46.6752957
74,Alrimal Park,3.9,park,24.5832302,46.606902
75,Jax Park,3.7,park,24.7457942,46.5384899
76,Al samhaniya,5,park,24.7481198,46.5363345
77,Al bujairy,3,park,24.7481198,46.5363345
78,King Abdulaziz Park,4.9,park,24.855002,46.6961821
79,ALMAJDIAH 144,4.5,park,24.8685984,46.6498298
80,Al Multaqa Park,4.4,park,24.8562922,46.6507813
81,Masharef Hills ,5,park,24.8736017,46.6448468
82,Al Naseem West District Park,4.7,park,24.7322325,46.8315528
83,Al Khaldiyah Park,3.8,park,24.6156283,46.7643741
84,Manfoha Park,3.6,park,24.6139501,46.720618
85,hattab Park,3,park,24.8038683,46.8447523
86,First Nahda District Park,3.4,park,24.7640466,46.8211159
87,Al Naseem District Park,3.3,park,24.7327856,46.8374466
88,Al Naseem 10th District Park,3,park,24.7466871,46.8203825
89,Matwiyah Park,4.5,park,24.737959,46.5754698
90,AlHejailan Farm - Al Wasita,4.5,park,24.7290623,46.5691845
91,Lake Hanifa Valley - Dam stone,4.5,park,24.5712879,46.7219426
92,Manakh King Abdulaziz Park,3.9,park,24.6177403,46.7726395
93,King Abdulaziz park,4.5,park,24.6172461,46.7723085
94,AlWedad Garden,3.3,park,24.8987019,46.6376053
95,Dhahrat Laban Park,5,park,24.6420998,46.5563503
96,Bader Park,3.8,park,24.5557384,46.7208061
97,Dhahrat Laban Park,3.8,park,24.6368108,46.5542205
98,Al Bujairi Park Garden,2.9,park,24.7389139,46.5732472
99,Jawzat Ad Diriyah Park,4.3,park,24.7379716,46.5730984
100,Park,4.5,park,24.7490698,46.5697356
101,Lake park Riyadh,3,park,24.7135517,46.6752957
102,Eastern Dhahrat Laban Park,3.7,park,24.6554784,46.5713831
103,Al Bujairi Heritage Park,4.4,park,24.7360934,46.574162
104,Al Amal Park,3,park,24.7494029,46.9028375
105,Nadwa Park,3.8,park,24.7970931,46.869504
106,Prince Naser Park,3.3,park,24.670616,46.6626219
107,King Salman Science Oasis,4.2,park,24.7042282,46.7000132
108,National Center for Wildlife,3.8,park,24.7022579,46.7413833
109,Wlking Area,4.8,park,24.690338,46.7057953
110,Walking area,5,park,24.6859685,46.7047221
111,Sulaymaniyah Playground,3.9,park,24.6945566,46.7120142
112,Park,3,park,24.6717342,46.6746526
113,Garden,3.3,park,24.6696142,46.6758445
114,Garden,5,park,24.6693879,46.6779584
115,Taybah Park,3.8,park,24.5544933,46.8114761
116,Al Gawza Park,3.9,park,24.6980355,46.6987103
117,King Fahad Library Park,4.3,park,24.6863562,46.6879202
118,Alsroor Park,4,park,24.6906345,46.7269618
119,Al Nazim  park,3.4,park,24.8106713,46.8794945
120,Radius Garden,4.3,park,24.6792372,46.7087683
121,Sitting Area,4.7,park,24.7019535,46.7463058
122,Carnation Park,4,park,24.6914726,46.7367262
123,Al Rayeh Garden,4,park,24.6814465,46.7045264
124,Malaz Park ,3.6,park,24.6759171,46.7313292
125,Mutanabi Park,3.8,park,24.6758559,46.7313413
126,Al Nahda Park - Start Point,3.8,park,24.7036138,46.7451501
127,Taiba Park North Side,3,park,24.5562696,46.8059756
128,Garden in Yarmouk district,3.8,park,24.558074,46.804613
129,King Salman Park,3,park,24.7088259,46.7142481
130,Shubra district park,4.2,park,24.5653676,46.6492438
131,Marwa Walk,5,park,24.5250652,46.6499961
132,Marwa Second Park,4,park,24.534338,46.6603839
133,Third Western Suwaidi Park,4,park,24.5642908,46.6366436
134,Imam Abdulrahman Alfaisal Hospital Garden,5,park,24.5276503,46.6519735
135,Owsaa Lake Park,4.7,park,24.5591486,46.652743
136,Wadi Hanifa,4.3,park,24.7198661,46.5712558
137,Park,4.6,park,24.6934793,46.5806955
138,Al Nahda Park,4,park,24.6864146,46.7549525
139,Al-Jabri Garden,3,park,24.7426943,46.8407774
140,Zahra Park,3.8,park,24.6891412,46.7285941
141,New Ashbilia District Park,3.6,park,24.7871993,46.7908979
142,Park Wadi Hanifa Dir'iyya,4.2,park,24.7683566,46.5325656
143,Alhadhabah Park,4,park,24.5918041,46.7801982
144,Ishbiliyah New Park,3.6,park,24.7871993,46.7908979
145,alrayyan birds,4.2,park,24.8645898,46.6160773
146,Third Arqah Park,4,park,24.6891037,46.5959261
147,Irqah Wadi Hanifa,5,park,24.6785488,46.6070573
148,Assidr Park,4.4,park,24.6811067,46.6127727
149,Assabaa Park,4.4,park,24.6841452,46.6144119
150,Irqah Park,4,park,24.6866629,46.5865183
151,Al Tarf Park,3.6,park,24.749823,46.8389082
152,Rathath Es,3.7,park,24.616188,46.709965
153,Olaisha Park,4,park,24.6294434,46.6775695
154,Fog World,3.5,park,24.616017,46.7097931
155,Wadi Hanifah,4.2,park,24.5923186,46.7048389
156,Water Park Area,4.3,park,24.5892181,46.7061458
157,"Pigeon, walking and cycling yard",4.4,park,24.5957202,46.6963175
158,Public Al-Suwaidi Garden,3.9,park,24.5970372,46.6950887
159,King Fahd District Park,4,park,24.7337732,46.674437
160,Um Al Hamam Park,3.8,park,24.7004556,46.6483678
161,AlSalem Park,4.1,park,24.7050989,46.670301
163,Abdul Kader Shop,3,park,24.7134546,46.6718374
164,Al Rahmaniyah Park,4,park,24.7144173,46.6644926
165,Riviera Compound 3 (12 B),3.8,park,24.852767,46.6228301
166,"Fountain Park, Al Bustan Village",3,park,24.853556,46.6373387
167,Hello Park,4.4,park,24.6923933,46.6695316
168,The Fountain,4.5,park,24.8414439,46.7333447
169,AZAR GARDENS,5,park,24.7079149,46.679419
170,Oqla,3.7,park,24.9559727,46.6581208
171,Garden Al Jana Daria,3,park,24.801633,46.8604751
172,Garden Janadriah,3.7,park,24.8014838,46.8613203
173,Laban Park,3.9,park,24.637671,46.5675731
174,Wadi Hanifah,4.5,park,24.7093784,46.5903303
175,Al-Yamamah Garden,3.7,park,24.5884724,46.713346
176,Wadi Hanifa,5,park,24.5832906,46.7113533
177,MC Park,3,park,24.7548734,46.8668481
178,Al Shoumoukh Park,3.9,park,24.7517911,46.6836632
179,AL Dhouha Park.,4.1,park,24.7294936,46.6751016
180,AlBustan Park,5,park,24.7238024,46.6786298
181,Shatha Park,3.9,park,24.7370468,46.6765419
182,Park for kids,3.4,park,24.7163393,46.6937305
183,Urubah Park,3,park,24.7114372,46.6554206
184,Al Yasmin Park,4.1,park,24.8250283,46.6469826
185,Ar Rabi Park,3.7,park,24.830744,46.664677
186,Al Yasmin Garden 6,3.9,park,24.8293701,46.6334035
187,Qurtoba Neighborhood Park,4.3,park,24.8043208,46.7313845
188,Al Hamra Park,4.1,park,24.781456,46.7612858
189,Al Khaleej Garden,3.9,park,24.7656804,46.7988825
190,First Gulf Park,3.9,park,24.7664811,46.7985952
191,Neighborhood Park,5,park,24.7673121,46.8025688
192,Alkhaleej Park,3,park,24.7739295,46.7999798
193,Albasmah Park,4,park,24.7434952,46.6902751
194,Garden Manhal,4,park,24.744282,46.6952767
195,Alsurwat Park,3.8,park,24.7398477,46.6865545
196,Urubah Primary Substation,3,park,24.723957,46.693234
197,Albalad park,4,park,24.6048125,46.7361875
198,Al Iman Park,3,park,24.6032016,46.7337458
199,Nesto Park,4.5,park,24.5984413,46.7477445
200,Al Arfaj Park,4,park,24.6106841,46.7474272
201,Al Yarmuk Park,2.8,park,24.79556,46.7709449
202,Rasheed Park,4,park,24.8185367,46.7491284
203,Al Munisiyah Park,3.8,park,24.8177529,46.7579755
204,Al Qalam Park,3.9,park,24.818009,46.75779
205,First Qurtoba Park,3,park,24.8161127,46.7382008
206,Qurtoba 6,4.4,park,24.8161808,46.7382398
207,West Qurtoba Park,3.7,park,24.8019579,46.72712
208,Al Arjuan Park,2.8,park,24.801747,46.7266489
209,Second Narjis Park,3.6,park,24.8249692,46.6688257
210,Al Lotus Park,5,park,24.8244234,46.6677285
211,Alyasmine Park,4.3,park,24.8201258,46.660095
212,Flower Path - King Abdullah Walkway,4.4,park,24.7389692,46.7035638
213,Prince Sultan Walkway,4.6,park,24.7356729,46.6958377
214,Salah Aldeen Park,4.1,park,24.7368766,46.6927813
215,King Abdullah Walkways and Park,4.5,park,24.7401888,46.6949149
216,King Abdullah Walkways and Park,4.7,park,24.7413318,46.6975081
217,King Salman Park Foundation(Site Office),4.7,park,24.7252311,46.6985087
218,The Durra Garden,3.9,park,24.7418514,46.6911387
219,Almather Housing Park,4.5,park,24.6749271,46.7018298
220,Al Shifa Walkway,4.3,park,24.575066,46.6975191
221,Wadi Hanifa Park,4.3,park,24.5522524,46.7406021
222,Al-Narjis garden,4.2,park,24.82379,46.6915524
223,Noura Park,3.9,park,24.8261661,46.7437095
224,Altilal Park,3.7,park,24.5501395,46.7244689
225,Alfarhah,4.1,park,24.7671389,46.5658611
226,Al Rihab Park,4.3,park,24.7811495,46.565249
227,Aldiriyah Park,5,park,24.7659167,46.5684444
228,Irqah Garen,4.5,park,24.6872782,46.6108428
229,Alkhamilah Park,4,park,24.6905872,46.6117746
230,Ar Ramly Park,5,park,24.8136932,46.7240915
231,Munsiyah district park (5),4.4,park,24.8292125,46.7520097
232,Dar Jeel Park,5,park,24.6917067,46.6057249
233,Al Anoud Stable for Arabian Horses,5,park,24.7650399,46.8238276
234,Alnafl Walkway,3.8,park,24.5753054,46.7591808
235,Al Luluah Park and Walkway,3.3,park,24.5743497,46.7592109
236,Alshalal Park,3.4,park,24.611954,46.7264517
237,King Abdullah Park,4.5,park,24.5366179,46.4611877
238,Al Nazeem Wild Front,5,park,24.8211169,46.8990848
239,Al Nazeem Walkway,4.2,park,24.8217355,46.8989624
240,sokon garden,4,park,24.5517221,46.6893595
241,Garden buds,4.1,park,24.7265788,46.6843696
242,Falah Park,4.1,park,24.7919969,46.7063861
243,Al Hamra Park,4.1,park,24.7864166,46.7600322
244,SABIC Park,3.9,park,24.7958023,46.7245817
245,First Granada Park,4,park,24.7981855,46.7480733
246,Al Aghsan Park,4,park,24.7316979,46.6811399
247,Alsunbulah Park,4.1,park,24.72916,46.6817101
248,Alshuhada Park,4.3,park,24.7918293,46.7428377
249,Attyaf Garden,3,park,24.8009995,46.7615309
250,Alshuhada Park,4.2,park,24.7909754,46.742126
251,Wadi Hanifah Park,4.5,park,24.6560988,46.6131872
252,Wadi Hanifa Lake,4.3,park,24.6605625,46.6070625
253,Alsafarat Park,4.5,park,24.6762088,46.6142007
254,Sidr Park,4.7,park,24.6762898,46.6136099
255,Al Nafal Park,4.4,park,24.676567,46.6135137
256,Al Arrar Park,4.5,park,24.676358,46.6177777
257,Asheeh Park,4.5,park,24.6759751,46.6203174
258,DQ walking & Cycling track,4.6,park,24.6755035,46.6209665
259,Yamamah Park,4.4,park,24.681245,46.6161533
260,King Abdullah Park,4.3,park,24.6663356,46.7372099
261,Wadi Webair,4.5,park,24.6616677,46.6060226
262,An Nassriah Park,5,park,24.673396,46.6556151
263,Alhashim Park,5,park,24.6765509,46.6499391
264,AlHinaa Park,3.8,park,24.6525717,46.6678881
265,Al-Athel Garden,4.2,park,24.6729205,46.6355054
266,Talha Garden,4.3,park,24.671229,46.6321772
267,Sharfiyya park,3.9,park,24.6563621,46.6710163
268,Al-Hada Park,4.1,park,24.6588259,46.6271934
269,Fourth Children Playgroung Alsulaimaniah Neighborhood,5,park,24.7103455,46.7034804
270,Alsulaimaniah Park,4,park,24.7075414,46.7049896
271,Muntzah Albujairi Garden,4.2,park,24.7352804,46.5773588
272,Wadi Irqah Park,4.4,park,24.7034493,46.6039861
273,Narjis Public Walkway,4.2,park,24.8287878,46.6671592
274,Alnaseem Park,3,park,24.7275936,46.845584
275,AlGhubairah Park,3.8,park,24.6176163,46.7315681
276,Khuyool Park,3.7,park,24.5924007,46.722637
278,Ar Raihan Park,4.4,park,24.6818567,46.6363976
279,Grassy Park,4.1,park,24.6723888,46.625563
280,Cave Park,3.9,park,24.6740511,46.6738429
281,Al Watan Park,4.2,park,24.6449364,46.7115062
282,Aeryjae second garden,3.8,park,24.588339,46.5989523
283,Alsalam park,4,park,24.7040647,46.8134124
284,Al Douh Park,3.8,park,24.5806365,46.5861858
285,Rawdah Park,4.2,park,24.731698,46.7755667
286,Carmen Park Chalets,3.6,park,24.5480597,46.5732209
287,Al Mubarky Walkway,5,park,24.7485833,46.8081894
288,Al Nahdhah Park,4,park,24.747323,46.8046942
289,Al Aqiq Park,3.9,park,24.7816934,46.6253145
290,Salman AlFarsy Park,3.9,park,24.7818061,46.796826
291,Ishbiliyah Neighborhood Children's Park,3.9,park,24.7891276,46.8017836
292,AlFarsy park,4.3,park,24.7820794,46.7949833
293,"Visitor Pavillion, King Salman Park",4.3,park,24.7145412,46.7116993
294,King Salman Park,4.7,park,24.7140163,46.707157
295,Wadi Hanifa Garden,4.5,park,24.6678395,46.607265
296,Wadi Hanifa Park,4.3,park,24.6531667,46.6203056
297,Wadi Hanifa Park,4.6,park,24.6654173,46.6075547
298,Wadi Hanifa Garden,4.5,park,24.6604416,46.6031463
299,Under the stars,4,park,24.6650529,46.6085998
300,Al Shohada Garden,4.1,park,24.7925824,46.7361641
301,Al Sausan Park,4.3,park,24.6973001,46.6600428
302,AlQairawan Park,3.8,park,24.869821,46.574517
303,caravan valley,4.3,park,24.9444541,46.5672245
304,AlFateh Park,3.9,park,24.7467308,46.7930953
305,Nourah Albassam Park,5,park,24.8282954,46.7316241
306,Public Park,5,park,24.8203625,46.7337605
307,Dhahrat Laban Park,4.1,park,24.643435,46.5738934
308,Al Arjan Park,4.8,park,24.8089341,46.744616
309,Yarmouk Walkway,4.8,park,24.796145,46.7641368
310,Gharnatah Walkway,4.3,park,24.7891985,46.7393796
311,Alshuhadaa 4,4.7,park,24.7929266,46.7363125
312,Diyaar Alsaad Park,3.9,park,24.9713744,46.6264147
313,Shams Park,4.3,park,24.9674088,46.6176781
314,AlFanar Park,4.3,park,24.5339818,46.9372939
315,AlQadisiah Park,3.7,park,24.8068672,46.8182771
316,An Narjis Park,3,park,24.7451657,46.6979256
317,Okaz Park,3.8,park,24.5227626,46.677292
318,AlAjial Park,4,park,24.726992,46.6820143
319,Albahjah Park,3,park,24.5878499,46.7230241
320,Albawardi garden,3.7,park,24.5835118,46.7749075
321,Saif Alghulaisy stable,3,park,24.9527016,46.8581912
322,Almahdiah View,3.5,park,24.6259673,46.467857
323,AlDarr AlBaidaa Nieghborhood Park,5,park,24.5723478,46.8038737
324,DQ Running Track,5,park,24.6832935,46.6231824
325,Noel n Elbert Tambayan Park,4.5,park,24.6811862,46.6224508
326,AlFazari Feild,4,park,24.6845711,46.6247139
327,"Khuzama Park, Diplomatic Quarters",4.3,park,24.686497,46.621927
328,DQ Seating Area,1,park,24.6838043,46.6243327
329,Shurooq AlDarr,5,park,24.5536555,46.7796896
330,AlFajr Park,3.6,park,24.7356619,46.6791553
331,Alanuar Park,4.2,park,24.7323096,46.6795136
332,King Salman park,4.5,park,24.7205206,46.6968415
333,Garden Inshirah,3.8,park,24.7377588,46.6783658
334,King Salman Aroubah Park Gate,4.6,park,24.7227721,46.7024239
335,Badr II Park,3.14,park,24.52618532,46.69862241
336,Alkhulaij Park,5,park,24.7702826,46.7838761
337,Muhaidib Hotel,3.7,hotel,24.6771892,46.727269
338,Milinia Alulia Hotel,3.7,hotel,24.7059844,46.6770079
339,Dome,3.1,hotel,24.7153331,46.696429
340,ALMUHAIDB HOTEL,3.6,hotel,24.6816743,46.6914927
341,Taleen Hotel,3.4,hotel,24.690915,46.709006
342,Mira Suits Antoun,3.7,hotel,24.692248,46.7229086
343,Boudl Khurais Hotel,3.3,hotel,24.6801696,46.6932212
344,Mena Andalusia Hotel,3.4,hotel,24.6812654,46.6900307
345,Narcissus Hotel Riyadh,4.4,hotel,24.6956749,46.6836215
346,Reef Almalaz Hotel,2.7,hotel,24.6590531,46.7207947
347,Golden Tulip Al-Nasiriah hotel,3.5,hotel,24.6595734,46.683504
348,"Holiday Inn Riyadh - Olaya, an IHG Hotel",4,hotel,24.6803592,46.6905197
349,The Business Boutique Hotel,3.4,hotel,24.6926749,46.6844298
350,Shahen Resort,4.1,hotel,24.8584853,46.656011
351,Holiday Resort & Villas,3.9,hotel,24.8409176,46.6824406
352,Tallen Almaseef Hotel,3.1,hotel,24.763771,46.6841505
353,Executives Hotel Al Azizia,3.8,hotel,24.5964682,46.7451543
354,Albahia Hotels,3.5,hotel,24.601565,46.7538884
355,Orchid Almansour Hotel,3.3,hotel,24.6991892,46.7183384
356,Novotel Riyadh Al Anoud,4.2,hotel,24.7068776,46.6755136
357,Park House Hotel Apartments,4.1,hotel,24.7187663,46.6804909
358,Crowne Plaza Riyadh Al Waha,4.3,hotel,24.7421336,46.7250801
359,Qasr Albaroon Almaseef ,2.5,hotel,24.763771,46.6841505
360,Rafa,3.8,hotel,24.7714448,46.6985343
361,Ewaa Express Hotel - Al Olaya  ,3.6,hotel,24.6934707,46.6849224
362,Chalets Smoky Water Water,3.6,hotel,24.8835354,46.6184629
363,Pearls Venice Hotel Apartments,3.3,hotel,24.7582723,46.727261
364,Obaer Hotel,3.6,hotel,24.6887204,46.68802
365,Sheraton Riyadh Hotel & Towers,4.2,hotel,24.7274703,46.6652457
366,Crowne Plaza Riyadh Palace,4.4,hotel,24.6647143,46.7113242
367,Carawan Al Fahad Hotel,3.9,hotel,24.7108041,46.670519
368,Hotel Al Khozama,4,hotel,24.6919914,46.6857019
369,Mandarin Oriental Alfaisaliah,4.5,hotel,24.6903668,46.6841129
370,Four Seasons Hotel Riyadh At Kingdom Center,4.5,hotel,24.7113676,46.6743073
371,"Holiday Inn Riyadh - al Qasr, an IHG Hotel",4,hotel,24.683901,46.688032
372,Rosh Rayhaan by Rotana,4.5,hotel,24.7004029,46.6819706
373,"Alhamra palace By Warwick,Riyadh",3.8,hotel,24.7305628,46.6690566
374,Mandarin Alshamal Hotel Apartments,4.3,hotel,24.7539978,46.6787789
375,Riyadh Marriott Hotel,4.2,hotel,24.6859161,46.712343
376,Days Hotel by Wyndham Olaya Riyadh,3.7,hotel,24.6922593,46.6843361
377,Riyadh Airport Marriott Hotel,4.3,hotel,24.9244498,46.7129794
378,Wahat Ghanati Hotel,3.7,hotel,24.7899436,46.8215394
379,Takala Hotel Apartments,3.6,hotel,24.807339,46.7832623
380,Sama Nadirin suites,3.6,hotel,24.7827809,46.833059
381,"Radisson Blu Hotel, Riyadh",4.2,hotel,24.6708028,46.7188387
382,Nayyara,3.4,hotel,24.6825049,46.6771534
383,Grand Plaza Hotel - Takhasosi,3.7,hotel,24.6795158,46.6774668
384,Al-Solidere (1) Hotel Suites,2.8,hotel,24.7847256,46.8252797
385,Coral Olaya Hotel,3.5,hotel,24.674017,46.6937449
386,Mangrove Beach,3.7,hotel,24.9306194,46.997271
387,Al Rafahya Crown,3.7,hotel,24.793234,46.8192995
388,Four Points by Sheraton Riyadh Khaldia,4.1,hotel,24.6381134,46.7123856
389,Hotel Al Murabaa,3.4,hotel,24.6644614,46.7067201
390,Elaf Al Modn Hotel Apartments,3.7,hotel,24.7925,46.7897222
391,"Crowne Plaza Riyadh Minhal, an IHG Hotel",4.5,hotel,24.6896674,46.7173085
392,Carawan Al Khaleej Hotel,3.9,hotel,24.6765765,46.6941213
393,Ganadin Hotel,3.4,hotel,24.7011418,46.6818923
394,"The Ritz-Carlton, Riyadh",4.6,hotel,24.6657249,46.6308668
395,Safarat Hotel,3.7,hotel,24.6600138,46.6072407
396,Aba Alkhail Hotel,4,hotel,24.6418041,46.718482
397,Al Bustan Residence,4.2,hotel,24.7667785,46.5714302
398,Ritaj Hotel Suites,3.3,hotel,24.695508,46.7023467
399,Asoul Najed 2 Hotel Suite,3.8,hotel,24.6853708,46.7205951
435,Starbucks,4.1,cafe,24.6935,46.6951
436,Java Time,4.2,cafe,24.6828402,46.6971951
437,Dunkin Dontes,4.1,cafe,24.6901547,46.7124241
438,Tim Hortones,4.1,cafe,24.6898985,46.7136312
439,Dolce Ragoza,4.4,cafe,24.6965195,46.7034
440,Starbucks,4.1,cafe,24.697319,46.7019081
441,Dunkin,4.2,cafe,24.691997,46.6934184
442,In chocolate,3.7,cafe,24.6923761,46.6932153
443,Dunkin,4.2,cafe,24.6806895,46.6944797
444,Caribu Kafi,4.2,cafe,24.702843,46.699818
445,Starbucks,4.1,cafe,24.7014002,46.6963208
446,Dunkin,4.2,cafe,24.6987999,46.6902205
447,Starbucks,4.1,cafe,24.6988,46.6899
448,Tim Hortons,4.2,cafe,24.6986875,46.6898125
449,Mama Benz Cafe,4.3,cafe,24.6975625,46.6874375
450,Rifai toast,4.3,cafe,24.6720038,46.7275796
451,Vivenea Lounge,4,cafe,24.6982024,46.6869432
452,Café food prospects,4.4,cafe,24.6632305,46.7037482
453,Golden Tulip Nasserite Hotel,3.5,cafe,24.6595734,46.683504
454,Starbucks,4.1,cafe,24.6935,46.6951
455,Java Time,4.2,cafe,24.6828402,46.6971951
456,Caramel lobby Lounge,4.3,cafe,24.700242,46.682188
457,Starbucks,4.1,cafe,24.704945,46.679131
458,Dunkin,4.1,cafe,24.7043052,46.6821142
459,Higher Executive Hotel,4,cafe,24.7084843,46.6779717
460,Vivenea Lounge,4,cafe,24.6982024,46.6869432
461,Mama Benz Cafe,4.3,cafe,24.6975625,46.6874375
462,Tim Hortons,4.2,cafe,24.6959454,46.6699101
463,Totti Cafe,4.1,cafe,24.6925045,46.6734398
464,Tim Hortons,4.2,cafe,24.6986875,46.6898125
465,Starbucks,4.1,cafe,24.6988,46.6899
466,Dunkin,4.2,cafe,24.6987999,46.6902205
467,Lamud,2.9,cafe,24.6929447,46.6703665
468,Zul Sai,3.7,cafe,24.713591,46.6755535
469,Tim Hortons,4.2,cafe,24.7136379,46.6751825
470,Crabbi Karim,4.3,cafe,24.7046572,46.6650381
471,Starbucks,4.2,cafe,24.714894,46.6778172
472,Aroma Coffee,4.5,cafe,24.6866676,46.6806202
473,Starbucks,4.1,cafe,24.6935,46.6951
474,White foam cafe,3.8,cafe,24.7300841,46.6946022
475,Tim Hortons,4.2,cafe,24.7136379,46.6751825
476,Zul Sai,3.7,cafe,24.713591,46.6755535
477,Starbucks,4.2,cafe,24.714894,46.6778172
478,Higher Executive Hotel,4,cafe,24.7084843,46.6779717
479,Tim Hortons,4.2,cafe,24.7163056,46.6822616
480,Starbucks,4.1,cafe,24.704945,46.679131
481,Dunkin,4.1,cafe,24.7043052,46.6821142
482,Crabbi Karim,4.3,cafe,24.7046572,46.6650381
483,Dunkin Dontes,4.2,cafe,24.7081879,46.6616337
484,Dunkin Dontes,4.1,cafe,24.7257743,46.681398
485,Godfa,4.2,cafe,24.7187069,46.6578857
486,Caramel lobby Lounge,4.3,cafe,24.700242,46.682188
487,Starbucks,4.1,cafe,24.73049,46.671662
488,Sultan of coffee,3.9,cafe,24.7212589,46.6560713
489,Tim Hortons,4.2,cafe,24.6959454,46.6699101
490,Dunkin Dontes,4.2,cafe,24.717241,46.694829
491,Vivenea Lounge,4,cafe,24.6982024,46.6869432
492,Mama Benz Cafe,4.3,cafe,24.6975625,46.6874375
493,Golden Tulip Nasserite Hotel,3.5,cafe,24.6595734,46.683504
494,Starbucks,4.1,cafe,24.6935,46.6951
495,Java Time,4.2,cafe,24.6828402,46.6971951
496,Totti Cafe,4.1,cafe,24.6925045,46.6734398
497,Lamud,2.9,cafe,24.6929447,46.6703665
498,Caramel lobby Lounge,4.3,cafe,24.700242,46.682188
499,Tim Hortons,4.2,cafe,24.6959454,46.6699101
500,Aroma Coffee,4.5,cafe,24.6866676,46.6806202
501,Vivenea Lounge,4,cafe,24.6982024,46.6869432
502,Mama Benz Cafe,4.3,cafe,24.6975625,46.6874375
503,Starbucks,4.1,cafe,24.704945,46.679131
504,Dunkin,4.1,cafe,24.7043052,46.6821142
505,Tim Hortons,4.2,cafe,24.6986875,46.6898125
506,Starbucks,4.1,cafe,24.6988,46.6899
507,Dunkin,4.2,cafe,24.6987999,46.6902205
508,Higher Executive Hotel,4,cafe,24.7084843,46.6779717
509,In chocolate,3.7,cafe,24.6923761,46.6932153
510,Dunkin,4.2,cafe,24.691997,46.6934184
511,Crabbi Karim,4.3,cafe,24.7046572,46.6650381
512,Continent Oasis Hotel,4,cafe,24.680947,46.689278
513,Lotan hotel and spa,4,restaurant,24.7066487,46.6417087
514,Sushi Yoshi,4,restaurant,24.7048211,46.7061255
515,Najdi village,3.8,restaurant,24.6976883,46.6692333
516,Mama Noura,4.3,restaurant,24.6916263,46.7018848
517,Firewood,4.2,restaurant,24.6941192,46.7226815
518,Herfy,3.8,restaurant,24.6940569,46.6983362
519,Saudi restaurants,3.9,restaurant,24.6957429,46.7031135
520,Sheikh MandiSheikh almandi,3.5,restaurant,24.693749,46.701865
521,White Garden,4.2,restaurant,24.6943084,46.6836945
522,Tokyo - L and offers,4.4,restaurant,24.7181459,46.6867051
523,Herfy,3.7,restaurant,24.6755556,46.675
524,Kentucky chicken,3.8,restaurant,24.7045778,46.6647609
525,To suffice,3.8,restaurant,24.6829077,46.6891245
526,McDonald's,4,restaurant,24.683756,46.652378
527,"Good clouds for Shamiya pies, Sulaymaniyah branch",4.3,restaurant,24.7122587,46.6970047
528,Porter House Restaurant,4.2,restaurant,24.694002,46.6788305
529,Totti Cafe,4.1,restaurant,24.6925045,46.6734398
530,Delly taste restaurant,4,restaurant,24.6949445,46.683075
531,La Rostika Petzarea,4.1,restaurant,24.6945896,46.6834839
532,56 Avenue Diner,4.1,restaurant,24.6983522,46.6822436
533,Lotan hotel and spa,4,restaurant,24.7066487,46.6417087
534,Sushi Yoshi,4,restaurant,24.7048211,46.7061255
535,Najdi village,3.8,restaurant,24.6976883,46.6692333
536,Mama Noura,4.3,restaurant,24.6916263,46.7018848
537,Firewood,4.2,restaurant,24.6941192,46.7226815
538,Herfy,3.8,restaurant,24.6940569,46.6983362
539,Saudi restaurants,3.9,restaurant,24.6957429,46.7031135
540,Tokyo - L and offers,4.4,restaurant,24.7181459,46.6867051
541,Sheikh MandiSheikh almandi,3.5,restaurant,24.693749,46.701865
542,White Garden,4.2,restaurant,24.6943084,46.6836945
543,Kentucky chicken,3.8,restaurant,24.7045778,46.6647609
544,Herfy,3.7,restaurant,24.6755556,46.675
545,Herfy,3.8,restaurant,24.7200236,46.6905001
546,To suffice,3.8,restaurant,24.6829077,46.6891245
547,"Good clouds for Shamiya pies, Sulaymaniyah branch",4.3,restaurant,24.7122587,46.6970047
548,Little Caesar,3.9,restaurant,24.7247857,46.6558674
549,Kodo,4,restaurant,24.7322926,46.6758245
550,Burger boutique,4.1,restaurant,24.7029535,46.6786015
551,Flavors to serve meals throughout the day,4.3,restaurant,24.7002337,46.6821702
552,Sama Lounge,4.1,restaurant,24.7006847,46.6822636
553,Lotan hotel and spa,4,restaurant,24.7066487,46.6417087
554,Sushi Yoshi,4,restaurant,24.7048211,46.7061255
555,Najdi village,3.8,restaurant,24.6976883,46.6692333
556,Mama Noura,4.3,restaurant,24.6916263,46.7018848
557,Najdi village,4,restaurant,24.7426129,46.7046987
558,Jalab Restaurant,4.5,restaurant,24.7337823,46.6870006
559,Little Caesar,3.9,restaurant,24.7247857,46.6558674
560,Tokyo - L and offers,4.4,restaurant,24.7181459,46.6867051
561,Herfy,3.8,restaurant,24.6940569,46.6983362
562,Kodo,4,restaurant,24.7322926,46.6758245
563,White Garden,4.2,restaurant,24.6943084,46.6836945
564,Kentucky chicken,3.8,restaurant,24.7045778,46.6647609
565,Herfy,3.8,restaurant,24.7200236,46.6905001
566,"Good clouds for Shamiya pies, Sulaymaniyah branch",4.3,restaurant,24.7122587,46.6970047
567,Saudi restaurants,3.9,restaurant,24.6957429,46.7031135
568,McDonald's,3.8,restaurant,24.732704,46.676905
569,Tim Hortons,4.2,restaurant,24.7136379,46.6751825
570,Dominos Pizza,4,restaurant,24.7135517,46.6752957
571,Awisis,4.1,restaurant,24.712466,46.674625
572,Kentucky,4,restaurant,24.7123165,46.6753196
573,Sushi Yoshi,4,restaurant,24.7048211,46.7061255
574,Firewood,4.2,restaurant,24.6941192,46.7226815
575,Mama Noura,4.3,restaurant,24.6916263,46.7018848
576,Najdi village,3.8,restaurant,24.6976883,46.6692333
577,Kodo,3.9,restaurant,24.6663876,46.7244291
578,Herfy,3.8,restaurant,24.6940569,46.6983362
579,Kodo,3.9,restaurant,24.6905735,46.7231741
580,Saudi restaurants,3.9,restaurant,24.6957429,46.7031135
581,Sheikh MandiSheikh almandi,3.5,restaurant,24.693749,46.701865
582,White Garden,4.2,restaurant,24.6943084,46.6836945
583,To suffice,3.8,restaurant,24.6829077,46.6891245
584,Baba sweets,4.1,restaurant,24.6791245,46.708315
585,Cuzenos casting,3.8,restaurant,24.6830342,46.6975912
586,Labz is distorted,4.1,restaurant,24.6906098,46.7103724
587,Julibi Restaurant (Sulaymaniyah Branch),4.2,restaurant,24.6913641,46.7085612
588,Gourmet house,4.2,restaurant,24.6915879,46.7079891
589,Little Caesers,4,restaurant,24.6920869,46.7057934
590,Benjak will be a resource,4.2,restaurant,24.692662,46.7033492
591,Kentucky chicken,3.6,restaurant,24.6920128,46.7010817
592,Lens Kitchen,3.5,restaurant,24.6961207,46.7031484
593,Sushi Yoshi,4,restaurant,24.7048211,46.7061255
594,Firewood,4.2,restaurant,24.6941192,46.7226815
595,Mama Noura,4.3,restaurant,24.6916263,46.7018848
596,Kodo,3.9,restaurant,24.6663876,46.7244291
597,Herfy,3.8,restaurant,24.6940569,46.6983362
598,Kodo,3.9,restaurant,24.6905735,46.7231741
599,Saudi restaurants,3.9,restaurant,24.6957429,46.7031135
600,Sheikh MandiSheikh almandi,3.5,restaurant,24.693749,46.701865
601,Baba sweets,4.1,restaurant,24.6791245,46.708315
602,White Garden,4.2,restaurant,24.6943084,46.6836945
603,"Good clouds for Shamiya pies, Sulaymaniyah branch",4.3,restaurant,24.7122587,46.6970047
604,Labz is distorted,4.1,restaurant,24.6906098,46.7103724
605,Julibi Restaurant (Sulaymaniyah Branch),4.2,restaurant,24.6913641,46.7085612
606,Gourmet house,4.2,restaurant,24.6915879,46.7079891
607,Burger King,4,restaurant,24.687112,46.724124
608,Little Caesers,4,restaurant,24.6920869,46.7057934
609,Wasiio - Classic Burger,4.1,restaurant,24.7030032,46.7059872
610,Jean Burger,4,restaurant,24.696727,46.703506
611,Subway,4.1,restaurant,24.6939426,46.7322705
612,Lens Kitchen,3.5,restaurant,24.6961207,46.7031484
613,Starbucks,4.1,cafe,24.6935,46.6951
614,Java Time,4.2,cafe,24.6828402,46.6971951
615,Crabbi Karim Rabwah,4.3,cafe,24.6866533,46.7472634
616,Tim Hortones,4.1,cafe,24.6898985,46.7136312
617,Dunkin Dontes,4.1,cafe,24.6901547,46.7124241
618,Dolce Ragoza,4.4,cafe,24.6965195,46.7034
619,Starbucks,4.1,cafe,24.697319,46.7019081
620,Caribu Kafi,4.2,cafe,24.702843,46.699818
621,Sun Coffee Company,4,cafe,24.6992238,46.7384561
622,Starbucks,4.1,cafe,24.7014002,46.6963208
623,Forum,4.2,cafe,24.6855612,46.7385654
624,Dunkin,4.2,cafe,24.691997,46.6934184
625,In chocolate,3.7,cafe,24.6923761,46.6932153
626,Dunkin,4.2,cafe,24.6987999,46.6902205
627,Rifai toast,4.3,cafe,24.6720038,46.7275796
628,Starbucks,4.1,cafe,24.6988,46.6899
629,Tim Hortons,4.2,cafe,24.6986875,46.6898125
630,Dunkin,4.2,cafe,24.6806895,46.6944797
631,Dunkin Dontes,4.1,cafe,24.6851365,46.7443042
632,Mama Benz Cafe,4.3,cafe,24.6975625,46.6874375
633,Golden Tulip Nasserite Hotel,3.5,cafe,24.6595734,46.683504
634,Starbucks,4.1,cafe,24.6935,46.6951
635,Java Time,4.2,cafe,24.6828402,46.6971951
636,Totti Cafe,4.1,cafe,24.6925045,46.6734398
637,Aroma Coffee,4.5,cafe,24.6866676,46.6806202
638,Lamud,2.9,cafe,24.6929447,46.6703665
639,Tim Hortons,4.2,cafe,24.6959454,46.6699101
640,Starbucks,4.1,cafe,24.6763674,46.676509
641,Dunkin,4.2,cafe,24.676241,46.675539
642,Caramel lobby Lounge,4.3,cafe,24.700242,46.682188
643,Mama Benz Cafe,4.3,cafe,24.6975625,46.6874375
644,Vivenea Lounge,4,cafe,24.6982024,46.6869432
645,Continent Oasis Hotel,4,cafe,24.680947,46.689278
646,Multen,4.1,cafe,24.6743433,46.6681479
647,Tim Hortons,4.2,cafe,24.6986875,46.6898125
648,Starbucks,4.1,cafe,24.704945,46.679131
649,Starbucks,4.1,cafe,24.6988,46.6899
650,In chocolate,3.7,cafe,24.6923761,46.6932153
651,Dunkin,4.1,cafe,24.7043052,46.6821142
652,Dunkin,4.2,cafe,24.691997,46.6934184
653,Lotan hotel and spa,4,restaurant,24.7066487,46.6417087
654,Sushi Yoshi,4,restaurant,24.7048211,46.7061255
655,Najdi village,3.8,restaurant,24.6976883,46.6692333
656,Mama Noura,4.3,restaurant,24.6916263,46.7018848
657,Herfy,3.8,restaurant,24.6940569,46.6983362
658,Firewood,4.2,restaurant,24.6941192,46.7226815
659,White Garden,4.2,restaurant,24.6943084,46.6836945
660,Saudi restaurants,3.9,restaurant,24.6957429,46.7031135
661,Sheikh MandiSheikh almandi,3.5,restaurant,24.693749,46.701865
662,Herfy,3.7,restaurant,24.6755556,46.675
663,Kentucky chicken,3.8,restaurant,24.7045778,46.6647609
664,To suffice,3.8,restaurant,24.6829077,46.6891245
665,McDonald's,4,restaurant,24.683756,46.652378
666,Tokyo - L and offers,4.4,restaurant,24.7181459,46.6867051
667,Residence Keynes,4.4,restaurant,24.689411,46.673702
668,Totti Cafe,4.1,restaurant,24.6925045,46.6734398
669,Bath Abdo,4.2,restaurant,24.6871644,46.6807426
670,Badz Road,4.1,restaurant,24.6874162,46.681247
671,Canton,3.8,restaurant,24.6914252,46.6698595
672,Makani Restaurant,3.4,restaurant,24.6874508,46.6813109
673,Subway,3.5,restaurant,24.8545711,46.7183428
674,Burger King,3.8,restaurant,24.847467,46.733893
675,Jean Burger,3.5,restaurant,24.847133,46.734177
676,Dominos Pizza,3.5,restaurant,24.8474853,46.7343907
677,Maestro,3.9,restaurant,24.8406281,46.749161
678,Kodo,3.9,restaurant,24.8416767,46.7510719
679,Dominos Pizza,3.8,restaurant,24.8421056,46.7514299
680,Romance,4.3,restaurant,24.8421014,46.7519851
681,Kentucky chicken,3.4,restaurant,24.8300374,46.7461973
682,Maestro Pizza,3.9,restaurant,24.817917,46.7319657
683,Kodo,3.7,restaurant,24.8178002,46.7317931
684,Kaza Basta,4,restaurant,24.8175537,46.7322953
685,McDonald's,3.6,restaurant,24.817342,46.732392
686,Kentucky chicken,3.7,restaurant,24.8357059,46.6796291
687,McDonald's,3.8,restaurant,24.845676,46.75889
688,Subway,4.4,restaurant,24.8150373,46.7266043
689,Subway,3.5,restaurant,24.8885959,46.6972652
690,Check me,3.6,restaurant,24.8182588,46.6872362
691,Domino,3.5,restaurant,24.8186873,46.6864336
692,Fairmont Riyadh,4.7,restaurant,24.8082207,46.7182893
693,Starbucks,3.9,cafe,24.8580611,46.6461134
694,easy,3.7,cafe,24.8414523,46.6073458
695,Taini Bird Cafe,4.6,cafe,24.8616816,46.6339994
696,Fermer Kofi Shop,5,cafe,24.8623341,46.6310382
697,Arabica Star,4.3,cafe,24.8620199,46.630409
698,24 Savy,4,cafe,24.8673003,46.6405918
699,ADNOC fuel station,3.8,cafe,24.861898,46.6303484
700,Dunkin Dontes,2.6,cafe,24.8719375,46.6383125
701,Moroccan mood,4.2,cafe,24.8722784,46.6274018
702,Thurd,4.1,cafe,24.874415,46.6380435
703,Golden kangaroo,4.3,cafe,24.8745305,46.6382524
704,Magic CUP CAFE Magic Cup Café,3.7,cafe,24.8722598,46.6265878
705,McCafé,3.3,cafe,24.864052,46.643154
706,Zone a,3.7,cafe,24.8629465,46.64264
707,Coffee,3.2,cafe,24.862983,46.6427967
708,North Coffee - North Kofi,4.5,cafe,24.862904,46.642846
709,Cinnabon Sharaf Hills,4.1,cafe,24.8751121,46.6384381
710,Mi Cafe,3,cafe,24.8707807,46.6438563
711,Delicious tea,5,cafe,24.8768821,46.6365465
712,Ghazala CafeSpecialized coffee,4.3,cafe,24.8568243,46.6364867
713,Starbucks,4,cafe,24.84553,46.725006
714,Dunkin Dontes,4.2,cafe,24.8469259,46.7334594
715,Dunkin,3.9,cafe,24.8418729,46.7515616
716,Dunkin Dontes,3.6,cafe,24.8148507,46.7269448
717,Coffee coffee,3.6,cafe,24.8298489,46.6822956
718,Emirates Karak,3.5,cafe,24.8880254,46.6970926
719,Dunkin Dontes,4,cafe,24.8187975,46.686791
720,Check me,3.6,cafe,24.8182588,46.6872362
721,Starbucks,4.1,cafe,24.817936,46.686779
722,Sufficient with Jarir Plaza instruments,3.9,cafe,24.818082,46.6864989
723,Dunkin Dontes,4,cafe,24.82815,46.758382
724,Starbucks,4.3,cafe,24.8080401,46.7166778
725,Benz Cookies,4.2,cafe,24.8177743,46.6864852
726,12 Copes Rsime at Kaf,5,cafe,24.85431,46.7183612
727,Code,3,cafe,24.8545353,46.7185088
728,Dunkin ' - Dunkin,5,cafe,24.8532768,46.7203574
729,Lulia Café - Lulia Cafe,4.1,cafe,24.8554346,46.7160414
730,Dunkin,3.4,cafe,24.8535625,46.7126875
731,Moon Cafe,3.5,cafe,24.8583052,46.7177604
732,Starbucks Ben Station 1 Darf Dharr,5,cafe,24.8504781,46.7116564
733,Little Caesar,3.8,restaurant,24.858682,46.6240911
734,Dominos Pizza,3.4,restaurant,24.8582642,46.6465874
735,Body Burger,3.8,restaurant,24.8875652,46.6077282
736,Herfy,3.7,restaurant,24.8382814,46.6089814
737,Mayar Support Services Company Central Kitchen,2.8,restaurant,24.8627448,46.6320913
738,The pearls,4.2,restaurant,24.8627446,46.6320717
739,"Seve Kyo Sere, African food",4.5,restaurant,24.8618474,46.6339367
740,buffet,2.5,restaurant,24.8622379,46.6308259
741,Bruced Ki,4,restaurant,24.86758,46.6405108
742,L & R Restaurant,3.7,restaurant,24.8670492,46.6407019
743,Oakberry ACAI,4.2,restaurant,24.8721798,46.6378215
744,Saty Box Sati Box,3.6,restaurant,24.8724962,46.6306045
745,Wafa buffet to provide meals,3.1,restaurant,24.8666032,46.6409493
746,Hadrami flavor restaurants,3.8,restaurant,24.8683728,46.640924
747,BAMBAO Pambo,3.8,restaurant,24.8726785,46.6306541
748,Joshnam,5,restaurant,24.8725798,46.6304508
749,Shawarma & Moore,4,restaurant,24.8680734,46.6410422
750,The countryside of popular food,3.9,restaurant,24.866755,46.641146
751,Kabsa legendAstort Alkabsah,4.6,restaurant,24.8726978,46.6305506
752,Oh Ok,4.4,restaurant,24.8677701,46.6412293
753,Dominos Pizza,3.8,restaurant,24.9615682,46.7016108
754,Kodo,3.8,restaurant,24.9613526,46.7025161
755,color,4.3,restaurant,24.914236,46.6890024
756,Eastern taste restaurant,3,restaurant,24.9611224,46.6966081
757,Shawarma Jassas,3.5,restaurant,24.9415791,46.7102807
758,Costa Coffee,4.5,restaurant,24.9417654,46.7113748
759,Camdeen Food,2.4,restaurant,24.9444046,46.7111717
760,Tim Harens,4.6,restaurant,24.9566184,46.7044713
761,Maqloba |Inverted,4.4,restaurant,24.9421843,46.7119327
762,Subway,4.4,restaurant,24.942169,46.711983
763,"Lounge Hayyak, King Khalid Airport, Riyadh",3.6,restaurant,24.9431174,46.7118421
764,Dominas Pisa,2.4,restaurant,24.955817,46.705478
765,Burger King,4.3,restaurant,24.9427562,46.7120878
766,Taha C Hut Food,5,restaurant,24.9560083,46.7054565
767,Dominos Pizza,2.7,restaurant,24.9425801,46.7122025
768,Shawarmer,4.1,restaurant,24.9423852,46.7122764
769,Aromatic,3,restaurant,24.9425833,46.7124444
770,Mazza and grills,4.2,restaurant,24.9579133,46.7041419
771,Pitt Pisa & Pits,3,restaurant,24.9412593,46.7131417
772,Herfy,4,restaurant,24.9601914,46.7024242
773,Arabica Star,4,cafe,24.9407915,46.5569056
774,Desert Supply Foundation,4.4,cafe,24.8916875,46.6009375
775,Arabic coffee,4.5,cafe,24.8916953,46.6010525
776,Coffee and Sabbin concerts,3,cafe,24.8879582,46.5847307
777,Resting the children of Abu Haimid,5,cafe,24.9101687,46.6096865
778,Cafete Cafe,4.6,cafe,24.9084375,46.6099375
779,Viviti Four Cuff,3,cafe,24.8919232,46.6026675
780,Hilali,3,cafe,24.8917538,46.6035345
781,Hosting Makarim,3,cafe,24.8935315,46.6060423
782,Kofi Diwaniya Al -Shaqrda,3,cafe,24.8935315,46.6060423
783,You don't like salvation,3,cafe,24.8935315,46.6060423
784,Pleng Long,4.5,cafe,24.8924714,46.6081525
785,The first jewel,3,cafe,24.882725,46.5877133
786,Country of the traveler for a shish and the honey,3.4,cafe,24.8826293,46.5877106
787,Lounge and the mood corner cafe,4.6,cafe,24.8959224,46.6123209
788,Diwaniya Makarm,4.7,cafe,24.8819929,46.5865354
789,Arab Diwaniyah 2,4.6,cafe,24.922399,46.5666022
790,Sufficient Ops - specialized coffee,4,cafe,24.8963267,46.6132061
791,Tea,4,cafe,24.8816647,46.5870701
792,The ninth Diwanah of the Arab Coffee,4.4,cafe,24.8816243,46.5876653
793,Starbucks,4,cafe,24.941764,46.711056
794,Dunkin Dontes,4,cafe,24.9609736,46.702678
795,Sufficient earning it,3.4,cafe,24.9142689,46.6890414
796,The Long,5,cafe,24.9138298,46.6892385
797,Dunkin,4,cafe,24.9137991,46.6892532
798,Manifestation,4.5,cafe,24.9131712,46.6893153
799,Dose Cafe,4.4,cafe,24.931392,46.644461
800,London London - Terminal on Riad Arboura,3.6,cafe,24.9454935,46.7089092
801,Java Cafe,4,cafe,24.9417134,46.7111679
802,Mama Benz,3.8,cafe,24.9427844,46.7109339
803,Costa Coffee,4.5,cafe,24.9417654,46.7113748
804,Art CAF,4.2,cafe,24.9415032,46.711537
805,J & w Joyce,4.5,cafe,24.9447283,46.7111779
806,Tim Harens,4.6,cafe,24.9566184,46.7044713
807,Starbucks,3.9,cafe,24.957048,46.704109
808,Camel Step |Camel step,4.5,cafe,24.9553771,46.7055677
809,but rather,4,cafe,24.9550705,46.7058249
810,Eric Caesar,3,cafe,24.9421843,46.7119327
811,Copped tea,5,cafe,24.9421843,46.7119327
812,Sol + Green,3.5,cafe,24.9444638,46.7113942
813,Body Burger,3.8,restaurant,24.8875652,46.6077282
814,Albukhari Restaurant Restaurant,3.9,restaurant,24.9059281,46.5993563
815,Distinguished Al -Demamah Restaurant (Pakistani Restaurant),5,restaurant,24.9054414,46.5995992
816,Pakistani Retoriah 804,5,restaurant,24.9063303,46.6002488
817,MATAM NAJAM Al WAHAJ Najm Al -Wahj Pakistani Restaurant,4.3,restaurant,24.9062617,46.6003417
818,The beaches of Yemen,4.1,restaurant,24.9033612,46.601519
819,Alseekh |Soft,5,restaurant,24.9084143,46.6053017
820,restaurant,1,restaurant,24.8980056,46.6033227
821,Kiosk Restaurant Juha,4.5,restaurant,24.9088178,46.6061696
822,Dora North Restaurant,5,restaurant,24.8983224,46.6036796
823,Shawarma Restaurant,3,restaurant,24.8983224,46.6036796
824,Beit Al -Arab Al -Bukhari Restaurant,3.4,restaurant,24.8975041,46.6036086
825,Smate Al -Bukhari Smile Restaurant 3,4.2,restaurant,24.8975246,46.6036831
826,Council Restaurant,3.5,restaurant,24.8920639,46.6019456
827,Wonderful liver buffet,4.1,restaurant,24.892162,46.6020842
828,100% Egyptian Falafel Al -Sadel Corner Restaurant,3.5,restaurant,24.8921133,46.6021154
829,Attam Lak I feed you,4.7,restaurant,24.8925456,46.603047
830,Bean and Tuis of Taif Candles,3.9,restaurant,24.892712,46.6035447
831,"I want, I want",3.7,restaurant,24.8919257,46.602662
832,Al -Harbi Buffet for fast food,4.1,restaurant,24.8919052,46.602643
833,Java Time,4.1,cafe,24.8192311,46.6430113
834,Starbucks,3.9,cafe,24.8580611,46.6461134
835,Coffee coffee,3.6,cafe,24.8298489,46.6822956
836,Starbucks,4.2,cafe,24.8088552,46.6688168
837,Tim Hortons,4.2,cafe,24.808424,46.6695568
838,Moroccan taste,4.3,cafe,24.8041748,46.6515031
839,Dunkin Dontes,4,cafe,24.8187975,46.686791
840,Sufficient with Jarir Plaza instruments,3.9,cafe,24.818082,46.6864989
841,Benz Cookies,4.2,cafe,24.8177743,46.6864852
842,Starbucks,4.1,cafe,24.817936,46.686779
843,Check me,3.6,cafe,24.8182588,46.6872362
844,Dunkin Dontes,3.9,cafe,24.7976198,46.6417632
845,Dunkin Dontes,4,cafe,24.7976195,46.6417626
846,Types of coffee,4.2,cafe,24.7953519,46.6559914
847,Starbucks,4.1,cafe,24.8085939,46.6173226
848,easy,3.7,cafe,24.8414523,46.6073458
849,Dunkin Dontes,4,cafe,24.7999445,46.6270349
850,Archi Archi,5,cafe,24.8349255,46.6569074
851,Moroccan mood,4.3,cafe,24.8335571,46.6576713
852,You are Copy Covey,5,cafe,24.8329868,46.6581185
853,Subway,3.5,restaurant,24.8885959,46.6972652
854,Subway,3.5,restaurant,24.8545711,46.7183428
855,Kentucky chicken,3.7,restaurant,24.8357059,46.6796291
856,Coffee,4.2,restaurant,24.888566,46.696778
857,Capses restaurantNarcissus branch,4.2,restaurant,24.888583,46.6972141
858,McDonald's,3.7,restaurant,24.889092,46.696897
859,Kodo,3.6,restaurant,24.8890856,46.6970655
860,McDonald's,2,restaurant,24.889567,46.693315
861,Karak my diets,4.4,restaurant,24.8899897,46.6926764
862,Coffee,4.3,restaurant,24.890018,46.693039
863,Map burger,4.4,restaurant,24.890117,46.6927467
864,Map burger,4.6,restaurant,24.8901704,46.692719
865,Pizza and pizza kirk road,4.6,restaurant,24.8902872,46.6927487
866,Sentem bar,5,restaurant,24.8732248,46.7103856
867,"Shadaq, your bridge",4.6,restaurant,24.8722188,46.7111766
868,McDonald's,4.5,restaurant,24.8693704,46.6696638
869,Mendi Walid,3.4,restaurant,24.857205,46.677133
870,Saeed Al -Zahrani Restaurant,4.2,restaurant,24.8570393,46.6771155
871,Luxury sheep restaurant,4.7,restaurant,24.8605266,46.6728212
872,Pizza and Pasta,3.3,restaurant,24.8686363,46.6676295
873,Dominos Pizza,3.8,restaurant,24.8105963,46.6240752
874,Era Pizza,3.9,restaurant,24.8200347,46.6423155
875,Steak House,4.1,restaurant,24.8244018,46.6571693
876,Fire Grill,4.1,restaurant,24.8242798,46.6571898
877,Payo,4.2,restaurant,24.8242455,46.6574317
878,McDonald's,3.5,restaurant,24.823803,46.656022
879,Dominos Pizza,3.7,restaurant,24.8235111,46.6555252
880,Kaza Basta,4.1,restaurant,24.8234438,46.6557628
881,Maestro Pizza,3.8,restaurant,24.8233851,46.6557665
882,Petzarati,4.1,restaurant,24.8225166,46.6499255
883,Burger King,3.8,restaurant,24.8162716,46.6457055
884,Dominos Pizza,3.5,restaurant,24.819337,46.6426924
885,Popys,4.4,restaurant,24.8191507,46.6427481
886,Roberts Boutique,3.7,restaurant,24.8143006,46.6588913
887,Kentucky chicken,3.7,restaurant,24.8357059,46.6796291
888,Dominos Pizza,3.4,restaurant,24.8582642,46.6465874
889,Kentucky,3.9,restaurant,24.8083744,46.6662244
890,Chelse,3.6,restaurant,24.8091873,46.6686673
891,Tim Hortons,4.2,restaurant,24.808424,46.6695568
892,The land of nature,4,restaurant,24.804986,46.6513019
893,Emirates Karak,3.5,cafe,24.8880254,46.6970926
894,Starbucks,4,cafe,24.84553,46.725006
895,Moroccan mood,3.8,cafe,24.888519,46.6966042
896,Coffee,4.2,cafe,24.888566,46.696778
897,Half a million,4.2,cafe,24.888715,46.696642
898,You are sufficient,4,cafe,24.8889149,46.6963919
899,Mid Kofi ancestor,4.2,cafe,24.88897,46.6963642
900,Denkin,4.1,cafe,24.8891168,46.6966324
901,McCafé,1.7,cafe,24.889489,46.693286
902,Starbucks,4,cafe,24.889528,46.692972
903,Costa Coffee,4.3,cafe,24.889837,46.693054
904,Coffee,4.3,cafe,24.890018,46.693039
905,Dunkin Donat,2.6,cafe,24.8900625,46.6933125
906,Java Tim,5,cafe,24.8719086,46.7103544
907,Hamza,5,cafe,24.8607306,46.710612
908,4Twins Coffee & Sweet,4,cafe,24.8575087,46.7093916
909,Shahi our house,3,cafe,24.860629,46.6742469
910,Moon Cafe,3.5,cafe,24.8583052,46.7177604
911,Bernas,3.4,cafe,24.8531973,46.6762575
912,Jabnas House,4.9,cafe,24.8743074,46.6631839
913,Kentucky,3.7,restaurant,24.5950641,46.737091
914,Jean Burger,3.8,restaurant,24.614427,46.758937
915,Pergarezar,4.1,restaurant,24.6141675,46.7586799
916,India's forests,3.9,restaurant,24.6141839,46.7584589
917,Kentucky chicken,3.5,restaurant,24.6178517,46.7531763
918,Fairy,3.9,restaurant,24.6183431,46.7523347
919,The fortress,4.1,restaurant,24.6298182,46.7513517
920,Falafel Arafa,3.8,restaurant,24.60977,46.7517958
921,Jawa Spicy,3.6,restaurant,24.6046954,46.754971
922,Pizza Ram - Pizza RAM,4,restaurant,24.6087215,46.7502644
923,Dirati restaurants,4,restaurant,24.5957403,46.772965
924,Subway,3.9,restaurant,24.6057928,46.7519254
925,Herfy,3.7,restaurant,24.6145412,46.7464936
926,Maestro Pizza,3.9,restaurant,24.6146747,46.7460768
927,Tom Tom,3.7,restaurant,24.6183092,46.7453853
928,Burger,4.1,restaurant,24.5941255,46.7571175
929,Satellite and rice,4.2,restaurant,24.6286034,46.7395277
930,Kodo,3.9,restaurant,24.5997505,46.7460746
931,Burger King,3.8,restaurant,24.599215,46.745094
932,Kentucky chicken,3.5,restaurant,24.5874805,46.7628517
933,Body Burger,3.8,restaurant,24.8875652,46.6077282
934,Little Caesar,3.8,restaurant,24.858682,46.6240911
935,Dominos Pizza,3.4,restaurant,24.8582642,46.6465874
936,Grille,3.4,restaurant,24.8878321,46.617096
937,Lavender,4.1,restaurant,24.8883134,46.6181954
938,My cooks to serve meals,4.7,restaurant,24.8917975,46.6122859
939,Falafel,3.6,restaurant,24.8885532,46.6189523
940,Bloom Bakri,5,restaurant,24.8894607,46.6121694
941,Al -Sham Square,4.3,restaurant,24.8890564,46.6200435
942,"Bashwar Al -Bukhari Restaurant, north of Riyadh",5,restaurant,24.8882982,46.6200448
943,Hala Al -Jawhara sweets factory,3.5,restaurant,24.8950088,46.6132461
944,Kabsa Azouz,4.8,restaurant,24.8935356,46.6114011
945,Zaman Al -Fairah Restaurant Damascene,4.1,restaurant,24.8864136,46.6136316
946,White Chicken,4,restaurant,24.8863054,46.6134946
947,Bruced white chicken,4.5,restaurant,24.8862932,46.6135069
948,Al -Amana neighborhood restaurant,3.9,restaurant,24.8934752,46.6106784
949,Bangladeshi Retorna,5,restaurant,24.8932789,46.6104234
950,The art of jar,4.3,restaurant,24.8939869,46.6106914
951,Fresh and pie,4,restaurant,24.888965,46.622044
952,Buffet and fast snacks,4.2,restaurant,24.8937646,46.6103117
953,Starbucks,3.9,cafe,24.8580611,46.6461134
954,Selim tea,4.1,cafe,24.8878109,46.6170683
955,Long Dean,4.6,cafe,24.8909475,46.6197164
956,Moroccan mood Kofi,4.6,cafe,24.8883476,46.6183378
957,T-Hub,4.8,cafe,24.8875077,46.6163736
958,Vilucci Cafe,4.1,cafe,24.8885354,46.6189042
959,Shot,3,cafe,24.8879393,46.6195362
960,entity,4.4,cafe,24.8854605,46.6138332
961,Sufficient Ops - specialized coffee,4,cafe,24.8963267,46.6132061
962,Lounge and the mood corner cafe,4.6,cafe,24.8959224,46.6123209
963,Holly |Holly,4.2,cafe,24.8894096,46.6228729
964,Pleng Long,4.5,cafe,24.8924714,46.6081525
965,Outsit,4.2,cafe,24.8905671,46.6258398
966,Hosting Makarim,3,cafe,24.8935315,46.6060423
967,Kofi Diwaniya Al -Shaqrda,3,cafe,24.8935315,46.6060423
968,You don't like salvation,3,cafe,24.8935315,46.6060423
969,Costa is enough,4.6,cafe,24.8817432,46.6124331
970,Delicious tea on embers,5,cafe,24.8964153,46.6260547
971,Hilali,3,cafe,24.8917538,46.6035345
972,Viviti Four Cuff,3,cafe,24.8919232,46.6026675
973,Dunkin Dontes,4.1,cafe,24.6048341,46.7321763
974,Tim Hortons,4.1,cafe,24.602881,46.7326397
975,Diwaniya Delh Al Delh,4.5,cafe,24.6227616,46.7759985
976,The taste of the Afghan ice cream,4.2,cafe,24.6286682,46.7726778
977,pray,3,cafe,24.6237527,46.787457
978,Arabica Cafe,3.7,cafe,24.6113366,46.7621788
979,Tea,4.2,cafe,24.6093728,46.7639188
980,Lounge Travox (Lounge Travox),3.7,cafe,24.613831,46.7599247
981,Royal climate break,4.4,cafe,24.623489,46.7898328
982,Coffee,4.1,cafe,24.614206,46.759104
983,Black Kofi,4.8,cafe,24.6140148,46.7591164
984,Samuer is sufficient,4.2,cafe,24.612858,46.7590146
985,Food left the tag,4.7,cafe,24.612767,46.756757
986,Kofi Salem Al -Afari for cold and hot drinks,4.3,cafe,24.6129877,46.7562632
987,Arabica Cafe,3.4,cafe,24.6169052,46.7545422
988,Barn's |Barn,2.6,cafe,24.6021543,46.7698781
989,KM specialized coffee,4.6,cafe,24.6020458,46.7699596
990,"Cafe, good, our God",4.6,cafe,24.6131875,46.7548125
991,Baroli Cafe,3.5,cafe,24.6112619,46.7555949
992,Dear,3,cafe,24.6018879,46.7692347
993,Kentucky,3.7,restaurant,24.5950641,46.737091
994,Burger King,3.8,restaurant,24.599215,46.745094
995,Tim Hortons,4.1,restaurant,24.602881,46.7326397
996,Dominos Pizza,3.9,restaurant,24.6048588,46.7322938
997,Liwan Restaurant,3.9,restaurant,24.5979412,46.7428886
998,McDonald's,4,restaurant,24.604797,46.731805
999,Kodo,3.9,restaurant,24.5997505,46.7460746
1000,Pizza Ram - Pizza RAM,4,restaurant,24.6087215,46.7502644
1001,Subway,3.9,restaurant,24.6057928,46.7519254
1002,Maestro Pizza,3.9,restaurant,24.6146747,46.7460768
1003,Herfy,3.7,restaurant,24.6145412,46.7464936
1004,Falafel Arafa,3.8,restaurant,24.60977,46.7517958
1005,Jawa Spicy,3.6,restaurant,24.6046954,46.754971
1006,Tom Tom,3.7,restaurant,24.6183092,46.7453853
1007,Burger,4.1,restaurant,24.5941255,46.7571175
1008,Fairy,3.9,restaurant,24.6183431,46.7523347
1009,Kentucky chicken,3.5,restaurant,24.6178517,46.7531763
1010,India's forests,3.9,restaurant,24.6141839,46.7584589
1011,Pergarezar,4.1,restaurant,24.6141675,46.7586799
1012,Jean Burger,3.8,restaurant,24.614427,46.758937
1013,McDonald's,3.8,restaurant,24.570255,46.691384
1014,Kentucky,3.7,restaurant,24.5950641,46.737091
1015,Restaurants and kitchens house,3.8,restaurant,24.5881775,46.6690143
1016,Romance restaurants,4.3,restaurant,24.5620437,46.70705
1017,Kentucky chicken,3.7,restaurant,24.5962469,46.6817783
1018,Maestro Pizza,3.9,restaurant,24.5856392,46.6913155
1019,McDonald's,3.9,restaurant,24.601027,46.698565
1020,free,3.7,restaurant,24.5993098,46.6926895
1021,Domino,4.1,restaurant,24.6036404,46.7046169
1022,Maestro Pizza,4,restaurant,24.6038658,46.7056246
1023,Subway,3.8,restaurant,24.603952,46.705758
1024,Fresh,3.9,restaurant,24.6057825,46.7061672
1025,Herfy,3.8,restaurant,24.5830569,46.686534
1026,Kentucky chicken,3.7,restaurant,24.5738277,46.6952541
1027,McDonald's,3.8,restaurant,24.595997,46.681119
1028,Kentucky chicken is ancient,3.8,restaurant,24.6096844,46.7107084
1029,Burger Bab Aziz,4.2,restaurant,24.5849041,46.6782448
1030,Ghob more,4.1,restaurant,24.5924549,46.6755115
1031,Amo Hamza,3.3,restaurant,24.567674,46.688316
1032,Barbikio Tunait,4.3,restaurant,24.5675895,46.6882524
1033,Tim Hortons,4.1,cafe,24.602881,46.7326397
1034,Dunkin Dontes,4.1,cafe,24.6048341,46.7321763
1035,Dunkin Dontes,3.9,cafe,24.6288015,46.7101671
1036,Starbucks,3.9,cafe,24.600466,46.697815
1037,Mama Benz Cafe,4.4,cafe,24.6002656,46.6963474
1038,Zeus Café,4.6,cafe,24.6024306,46.7350863
1039,Moon Mood Specel Kofi,4.1,cafe,24.6030986,46.7417093
1040,Yemen Kofi,3,cafe,24.5983789,46.7402416
1041,Diwaniya beauty,3,cafe,24.607434,46.740363
1042,Nile club cafes,4.4,cafe,24.6025607,46.73263
1043,Coffee,3.9,cafe,24.6008755,46.7442439
1044,Starbucks,4.4,cafe,24.6040865,46.7323891
1045,Samawer Cafe,4.2,cafe,24.6067756,46.7426161
1046,Tea and sesame,3.9,cafe,24.5983764,46.7426498
1047,Grands |Specialized coffee,4.5,cafe,24.5984132,46.7428904
1048,Morocco coffee,4.1,cafe,24.5974313,46.7419522
1049,70 enough,5,cafe,24.6057481,46.7321914
1050,The excused,3,cafe,24.6057481,46.7321914
1051,Fast Kofi,4.4,cafe,24.5960689,46.7362312
1052,Eye Panorama Cafe,4.2,cafe,24.6067466,46.7447625
1053,Starbucks,3.9,cafe,24.600466,46.697815
1054,Mama Benz Cafe,4.4,cafe,24.6002656,46.6963474
1055,Tim Hortons,4.1,cafe,24.602881,46.7326397
1056,Dunkin Dontes,4.1,cafe,24.6048341,46.7321763
1057,Crabbi Karim,4.1,cafe,24.6254375,46.6889375
1058,Dunkin Dontes,4,cafe,24.573432,46.6634154
1059,Dunkin Dontes,3.9,cafe,24.6288015,46.7101671
1060,Totti is enough,3.9,cafe,24.6113879,46.6609137
1061,Coffee crown,4.2,cafe,24.5930155,46.7034696
1062,Enough Persia's passion,4.7,cafe,24.5963707,46.7016139
1063,Arab,4.6,cafe,24.5963506,46.7013805
1064,The start of the game,4.3,cafe,24.5961281,46.6999085
1065,The Spacee/The Space,5,cafe,24.5960763,46.6994244
1066,Starbucks,4.5,cafe,24.595814,46.697872
1067,Dr. Kev,4.2,cafe,24.5958125,46.6975625
1068,Caffeine Day,4.5,cafe,24.5960168,46.6974151
1069,Legendary cafeteria ..,5,cafe,24.5952501,46.6964643
1070,Koff's palm,4.6,cafe,24.5931027,46.6944417
1071,The coffee crown is ancient,5,cafe,24.5890938,46.7109311
1072,Aras Lounge,4.6,cafe,24.5941562,46.6947404
1073,Tim Hortons,4.1,cafe,24.602881,46.7326397
1074,Dunkin Dontes,4.1,cafe,24.6048341,46.7321763
1075,Starbucks,3.9,cafe,24.600466,46.697815
1076,Mama Benz Cafe,4.4,cafe,24.6002656,46.6963474
1077,International Square,4.1,cafe,24.5677872,46.7295922
1078,Salmiya coffee,3,cafe,24.573274,46.7333427
1079,Food left Joy taste,4.8,cafe,24.568107,46.7157011
1080,Drive Kofi,4.3,cafe,24.5640625,46.7178125
1081,The cafe met us,4.2,cafe,24.5644512,46.7171807
1082,Riyadh,3,cafe,24.57827,46.7303801
1083,Experience tea,5,cafe,24.5676191,46.7147096
1084,Diwaniyah Al -Shifa Badr neighborhood,4.8,cafe,24.5608138,46.7198897
1085,Café,3,cafe,24.5626024,46.7343382
1086,Food left the taste bait,5,cafe,24.5577883,46.7281379
1087,Maram is sufficient,5,cafe,24.5574855,46.7284386
1088,Fu left Rahaf Al -Shammari,5,cafe,24.5573017,46.7282314
1089,Morocco coffee,4.5,cafe,24.5569117,46.7268256
1090,Park near Harhaj Bin Qasim,3,cafe,24.5718173,46.7401174
1091,Nights of Karam Lounge,4.5,cafe,24.5647909,46.7102503
1092,Copper coffee,4.2,cafe,24.5647083,46.710276
1093,Cinezio,4.3,cafe,24.7513151,46.8226133
1094,Pour,4.1,cafe,24.7742181,46.8551965
1095,Starbucks for Vincir,3,cafe,24.7580462,46.8571089
1096,50 Copes,3.9,cafe,24.7841894,46.8744988
1097,Dunkin Dontes,4,cafe,24.755652,46.854676
1098,Java Cafe,3.3,cafe,24.7529385,46.8608148
1099,Al -Nawar Al -Nawar Cafe Cafe,4.5,cafe,24.7868755,46.8705261
1100,Coffee strings,3.4,cafe,24.7885508,46.8673539
1101,Cafe and Lueli Najd tea,5,cafe,24.7879377,46.8705661
1102,Knight Spectrum Cafe Cafe,3.9,cafe,24.788538,46.8674884
1103,Muhammad Faisal Café Branch 2,3.6,cafe,24.7885535,46.8674227
1104,Java Time,3,cafe,24.7514503,46.8574556
1105,Tea,3.8,cafe,24.7876526,46.8767175
1106,Dan Cafe,4,cafe,24.7876434,46.8767395
1107,Al -Shi Window,3,cafe,24.7860447,46.879396
1108,Karak House,4.7,cafe,24.7874785,46.8772841
1109,Nine Cafe,4.4,cafe,24.7871926,46.8778756
1110,Brad Karak,4.3,cafe,24.7894284,46.8741456
1111,Diwaniya Café Samara,4.8,cafe,24.7879058,46.877516
1112,Asia Restaurant and Kofi,3,cafe,24.787974,46.877411
1113,Romance,4.2,restaurant,24.7587183,46.8141239
1114,Hot pizza,3.9,restaurant,24.7378894,46.8437018
1115,Skrir House,4.1,restaurant,24.7549995,46.8657356
1116,Dominos Pizza,3.8,restaurant,24.7542445,46.8240726
1117,Canton,3.5,restaurant,24.754195,46.8240152
1118,Maestro Pizza,3.9,restaurant,24.7543854,46.823958
1119,Kaza Basta Renaissance,4,restaurant,24.7541144,46.8238494
1120,Kentucky,3.6,restaurant,24.7508206,46.8230012
1121,McDonald's,3.7,restaurant,24.750081,46.822255
1122,Herfy,3.7,restaurant,24.7421129,46.8263617
1123,Dominos Pizza,4,restaurant,24.7411934,46.8270303
1124,Hashem Corner Restaurant,3.9,restaurant,24.7541275,46.8163948
1125,Hot pizza,3.9,restaurant,24.7313523,46.8342286
1126,Kentucky Restaurant,3.5,restaurant,24.7295328,46.8364104
1127,McDonald's,3.8,restaurant,24.728913,46.837199
1128,Herfy,3.7,restaurant,24.7281426,46.8509662
1129,Kodo,3.8,restaurant,24.760348,46.812763
1130,Subway,3.9,restaurant,24.7780986,46.823825
1131,Dominos Pizza,3.8,restaurant,24.7804513,46.8271099
1132,Fawal and Tamis,4.3,restaurant,24.7233495,46.848157
1133,Kentucky,3.7,restaurant,24.5950641,46.737091
1134,Herfy,3.4,restaurant,24.577948,46.7490658
1135,"Al -Rafidain Restaurant for Al -Mashwads, individuals and families of the main branch",3.8,restaurant,24.5865501,46.7613341
1136,Burger King,3.8,restaurant,24.599215,46.745094
1137,Herfy,3.6,restaurant,24.5871184,46.7612623
1138,Subway,4,restaurant,24.5870266,46.7614614
1139,Furn aldayaa |Oven oven,4,restaurant,24.5870813,46.7615882
1140,Hambarten,4,restaurant,24.5872222,46.7616667
1141,Jean Burger,4,restaurant,24.587188,46.762023
1142,Maestro Pizza,3.8,restaurant,24.5871905,46.7622902
1143,Domino,3.9,restaurant,24.5874664,46.7625926
1144,Kentucky chicken,3.5,restaurant,24.5874805,46.7628517
1145,Burger,4.1,restaurant,24.5941255,46.7571175
1146,Liwan Restaurant,3.9,restaurant,24.5979412,46.7428886
1147,Kodo,3.9,restaurant,24.5997505,46.7460746
1148,Tim Hortons,4.1,restaurant,24.602881,46.7326397
1149,Jawa Spicy,3.6,restaurant,24.6046954,46.754971
1150,McDonald's,3.9,restaurant,24.585652,46.778468
1151,Subway,3.9,restaurant,24.6057928,46.7519254
1152,Dirati restaurants,4,restaurant,24.5957403,46.772965
1153,Skrir House,4.1,restaurant,24.7549995,46.8657356
1154,Kentucky,3.4,restaurant,24.7930658,46.8630347
1155,Romance,4.3,restaurant,24.7916555,46.862358
1156,BerraisezerBurgerizzr,4.2,restaurant,24.792023,46.862865
1157,Domino,3.8,restaurant,24.7920608,46.8628616
1158,Dominos Pizza,3.8,restaurant,24.7804513,46.8271099
1159,Hot pizza,3.9,restaurant,24.7378894,46.8437018
1160,Subway,3.9,restaurant,24.7780986,46.823825
1161,Dominos Pizza,3.8,restaurant,24.7542445,46.8240726
1162,Maestro Pizza,3.9,restaurant,24.7543854,46.823958
1163,Canton,3.5,restaurant,24.754195,46.8240152
1164,Kaza Basta Renaissance,4,restaurant,24.7541144,46.8238494
1165,Kentucky,3.6,restaurant,24.7508206,46.8230012
1166,McDonald's,3.7,restaurant,24.750081,46.822255
1167,Herfy,3.7,restaurant,24.7281426,46.8509662
1168,Herfy,3.7,restaurant,24.7421129,46.8263617
1169,Dominos Pizza,4,restaurant,24.7411934,46.8270303
1170,Burger Mashwi/grilled burger,1,restaurant,24.7709408,46.8546851
1171,Housing families- Public Security Riyadh,5,restaurant,24.7709443,46.8546815
1172,buffet,5,restaurant,24.7709254,46.8546681
1173,Kentucky,3.7,restaurant,24.5950641,46.737091
1174,McDonald's,3.8,restaurant,24.570255,46.691384
1175,Romance restaurants,4.3,restaurant,24.5620437,46.70705
1176,Liwan Restaurant,3.9,restaurant,24.5589923,46.7054587
1177,Kentucky chicken,3.3,restaurant,24.5496791,46.7211729
1178,McDonald's,3.8,restaurant,24.558167,46.705145
1179,Subway,4,restaurant,24.558903,46.704464
1180,Petzarati,4.4,restaurant,24.557649,46.703449
1181,Herfy,3.4,restaurant,24.577948,46.7490658
1182,Domino,3.9,restaurant,24.5574375,46.7031376
1183,Maestro Pizza,3.9,restaurant,24.5557368,46.701841
1184,Best pasta & pasta Moore,3.9,restaurant,24.5551257,46.7012423
1185,Kentucky chicken,3.7,restaurant,24.5738277,46.6952541
1186,Hamburgini Hambarteni - Al Shifa,4,restaurant,24.5523543,46.6990362
1187,Falal time restaurant,4,restaurant,24.5500519,46.6980667
1188,Liwan Restaurant,3.9,restaurant,24.5979412,46.7428886
1189,Amo Hamza,3.3,restaurant,24.567674,46.688316
1190,Tim Hortons,4.1,restaurant,24.602881,46.7326397
1191,Barbikio Tunait,4.3,restaurant,24.5675895,46.6882524
1192,Burger King,3.8,restaurant,24.599215,46.745094
1193,Crabbi Karim,4,cafe,24.5658125,46.7896875
1194,Fukk Rahaf Al -Shammari,3,cafe,24.5596566,46.7534156
1195,Barn's |Barn,3.5,cafe,24.5598533,46.748313
1196,Daily CUP,3.4,cafe,24.5634791,46.7615744
1197,Coffee Mines Foundation,4.5,cafe,24.5570189,46.7471306
1198,Dunkin Dontes,3.5,cafe,24.5525119,46.763663
1199,Arabica Coffee,3.7,cafe,24.5518452,46.7631412
1200,Shahi Khadra,5,cafe,24.5674892,46.754902
1201,Trophy,5,cafe,24.5658204,46.7633949
1202,Robsta Cafe,4.1,cafe,24.5684269,46.7536018
1203,Parv Al Ha'or,5,cafe,24.5684211,46.7533312
1204,A Coffee Black,3,cafe,24.5527144,46.7658135
1205,White Food Foundation for Trade,3,cafe,24.5658534,46.7469992
1206,Kyan - Kyan,4.1,cafe,24.5672599,46.762555
1207,Vilucci Café Al Azizia,4.1,cafe,24.5693569,46.7537077
1208,Feeling dose,4.6,cafe,24.5694024,46.7536782
1209,Hit a specialist coffee,4.5,cafe,24.5694739,46.7536288
1210,Coffee CafeCofen Cafe |Azizia,4,cafe,24.5701612,46.7532614
1211,Coffee,4,cafe,24.5587615,46.7698815
1212,Kofi Rasting K.And a feedback,4,cafe,24.5619071,46.7416939
1213,Tim Hortons,4.1,cafe,24.602881,46.7326397
1214,Dunkin Dontes,4.1,cafe,24.6048341,46.7321763
1215,Crabbi Karim,4,cafe,24.5658125,46.7896875
1216,Barn's |Barn,2.9,cafe,24.574619,46.749765
1217,Sama Cafe,4.6,cafe,24.5747724,46.7498254
1218,One min cafe- accurate coffee shop unit,5,cafe,24.5757155,46.7498882
1219,Mama Benz Cafe,4.2,cafe,24.5770089,46.7493111
1220,Krk TKarak t,3.8,cafe,24.5766875,46.7495625
1221,Bahar Baker,4.6,cafe,24.5778339,46.7490256
1222,coffee,5,cafe,24.5746212,46.7504975
1223,Restaurant equipment,5,cafe,24.5703171,46.7431961
1224,They invaded cafes,5,cafe,24.5695258,46.7439121
1225,Park near Harhaj Bin Qasim,3,cafe,24.5718173,46.7401174
1226,Farash Island,5,cafe,24.5691413,46.7431576
1227,Abu Haitham Park,3.2,cafe,24.581231,46.7426114
1228,Cafe Hot Star,5,cafe,24.5719813,46.7533151
1229,We will transfer caf,4.5,cafe,24.5721332,46.753391
1230,Sweet time Zain,4.3,cafe,24.5719895,46.7535317
1231,Batel is enough,4.3,cafe,24.5721761,46.7536309
1232,Cellan 3 tea,4.5,cafe,24.580161,46.7519694
1233,Dominos Pizza,3.8,restaurant,24.7804513,46.8271099
1234,Subway,3.9,restaurant,24.7780986,46.823825
1235,Maestro Pizza,3.7,restaurant,24.7995225,46.8142878
1236,Kentucky,3.4,restaurant,24.7930658,46.8630347
1237,Subway,4,restaurant,24.7905185,46.8090005
1238,Romance,4.3,restaurant,24.7916555,46.862358
1239,Domino,3.8,restaurant,24.7920608,46.8628616
1240,BerraisezerBurgerizzr,4.2,restaurant,24.792023,46.862865
1241,Excellent Fleet Restaurant - Al Gulf Restaurant - Al Khaleej District,3.5,restaurant,24.7799881,46.8104991
1242,Ready restaurants and kitchens,3.7,restaurant,24.8109326,46.8119304
1243,Pergarezar,4.1,restaurant,24.80856,46.806484
1244,Dominos Pizza,3.8,restaurant,24.7860698,46.7996292
1245,Kentucky,3.6,restaurant,24.8062418,46.8028031
1246,Manoosha |Rated,3.7,restaurant,24.7683138,46.8093367
1247,Burger King,3.8,restaurant,24.806379,46.801048
1248,Herfy,3.8,restaurant,24.7809607,46.7975115
1249,Dominos Pizza,4,restaurant,24.7673549,46.8067499
1250,Herfy,3.6,restaurant,24.7651217,46.8092281
1251,Kodo,3.8,restaurant,24.8055741,46.7991467
1252,Kentucky,3.6,restaurant,24.7670341,46.8061705
1253,Starbucks,4.1,cafe,24.6864056,46.5826153
1254,Sundus Mall,4.3,cafe,24.6859285,46.5829623
1255,Cinnabon,3.9,cafe,24.694781,46.605478
1256,Tim Hortons,4.2,cafe,24.694819,46.6065978
1257,Starbucks,4.2,cafe,24.6941693,46.6074157
1258,I established you,4,cafe,24.6820822,46.6250852
1259,For a coffeecraft oven,4.3,cafe,24.6863601,46.5819873
1260,Exquisite,5,cafe,24.6872441,46.5823725
1261,Costa Coffee,3,cafe,24.6872294,46.5824106
1262,Daily Dosage Coffee Shop,4.9,cafe,24.6863265,46.5822576
1263,Tim Hortons,4.4,cafe,24.6853152,46.5764095
1264,Barn,2.9,cafe,24.6853778,46.5762417
1265,Tea,5,cafe,24.6856397,46.5755343
1266,Shahi Abu Walid,4.2,cafe,24.6853409,46.5836758
1267,Half a million,4.2,cafe,24.68495,46.574715
1268,Kinan tea,4.7,cafe,24.6851746,46.5740927
1269,Arabica Star,4.2,cafe,24.6851228,46.5734914
1270,Fortwins,3.8,cafe,24.6850734,46.5732953
1271,Dunkin,3.6,cafe,24.6853984,46.5728344
1272,Shahi taste,4.8,cafe,24.6886967,46.587749
1273,Dunkin,4,cafe,24.9440431,46.9877281
1274,Nariz Café,3,cafe,24.9439932,46.9874002
1275,Shin Kofi,3.7,cafe,24.9435968,46.9865761
1276,Travel rail tea,3,cafe,24.9643687,47.0225267
1277,Osama bin Saud Al -Araim Council,3,cafe,24.9745545,46.9662196
1278,Abu Sultan Al -Subaie camp,1,cafe,24.9326896,47.0301258
1279,Indian Nahj Restaurant,3.7,restaurant,24.9435639,46.9886018
1280,Half Rottorana table,4.6,restaurant,24.9436748,46.987923
1281,Falcon table restaurant,3.3,restaurant,24.9436928,46.9879203
1282,Buffett the best meal,4.3,restaurant,24.9431334,46.9878021
1283,Sheikha Muhammad Major General,3,restaurant,24.9591875,47.0126875
1284,Kentucky chicken,3.3,restaurant,24.5496791,46.7211729
1285,Herfy,3.4,restaurant,24.577948,46.7490658
1286,Turkish Valley Pizza,4.1,restaurant,24.5561174,46.7787968
1287,Kentucky,3.7,restaurant,24.5950641,46.737091
1288,Romance restaurants,4.3,restaurant,24.5620437,46.70705
1289,"Al -Rafidain Restaurant for Al -Mashwads, individuals and families of the main branch",3.8,restaurant,24.5865501,46.7613341
1290,Subway,4,restaurant,24.5870266,46.7614614
1291,Herfy,3.6,restaurant,24.5871184,46.7612623
1292,Furn aldayaa |Oven oven,4,restaurant,24.5870813,46.7615882
1293,Hambarten,4,restaurant,24.5872222,46.7616667
1294,Jean Burger,4,restaurant,24.587188,46.762023
1295,Maestro Pizza,3.8,restaurant,24.5871905,46.7622902
1296,Domino,3.9,restaurant,24.5874664,46.7625926
1297,Kentucky chicken,3.5,restaurant,24.5874805,46.7628517
1298,Liwan Restaurant,3.9,restaurant,24.5589923,46.7054587
1299,McDonald's,3.8,restaurant,24.558167,46.705145
1300,Subway,4,restaurant,24.558903,46.704464
1301,Petzarati,4.4,restaurant,24.557649,46.703449
1302,Domino,3.9,restaurant,24.5574375,46.7031376
1303,Dirati restaurants,4,restaurant,24.5736391,46.7853524
1304,Crabbi Karim,4,cafe,24.5658125,46.7896875
1305,Coffee Mines Foundation,4.5,cafe,24.5570189,46.7471306
1306,Barn's |Barn,3.5,cafe,24.5598533,46.748313
1307,Fukk Rahaf Al -Shammari,3,cafe,24.5596566,46.7534156
1308,Your distinctive coffee,4.7,cafe,24.5599991,46.7409743
1309,Coffee verses,4.1,cafe,24.5599878,46.7409541
1310,Kofi Rasting K.And a feedback,4,cafe,24.5619071,46.7416939
1311,White Food Foundation for Trade,3,cafe,24.5658534,46.7469992
1312,Arabica Coffee,3.7,cafe,24.5518452,46.7631412
1313,Dunkin Dontes,3.5,cafe,24.5525119,46.763663
1314,Specialty Coffee Waznah specialized coffee,4.6,cafe,24.5485381,46.7304921
1315,Café,3,cafe,24.5626024,46.7343382
1316,Shahi Khadra,5,cafe,24.5674892,46.754902
1317,A Coffee Black,3,cafe,24.5527144,46.7658135
1318,Parv Al Ha'or,5,cafe,24.5684211,46.7533312
1319,Robsta Cafe,4.1,cafe,24.5684269,46.7536018
1320,Farash Island,5,cafe,24.5691413,46.7431576
1321,Daily CUP,3.4,cafe,24.5634791,46.7615744
1322,Maram is sufficient,5,cafe,24.5574855,46.7284386
1323,They invaded cafes,5,cafe,24.5695258,46.7439121
1324,Kentucky,3.7,restaurant,24.5950641,46.737091
1325,Herfy,3.4,restaurant,24.577948,46.7490658
1326,Turkish Valley Pizza,4.1,restaurant,24.5561174,46.7787968
1327,"Al -Rafidain Restaurant for Al -Mashwads, individuals and families of the main branch",3.8,restaurant,24.5865501,46.7613341
1328,Subway,4,restaurant,24.5870266,46.7614614
1329,Herfy,3.6,restaurant,24.5871184,46.7612623
1330,Furn aldayaa |Oven oven,4,restaurant,24.5870813,46.7615882
1331,Hambarten,4,restaurant,24.5872222,46.7616667
1332,Jean Burger,4,restaurant,24.587188,46.762023
1333,Maestro Pizza,3.8,restaurant,24.5871905,46.7622902
1334,Domino,3.9,restaurant,24.5874664,46.7625926
1335,Kentucky chicken,3.5,restaurant,24.5874805,46.7628517
1336,Dirati restaurants,4,restaurant,24.5736391,46.7853524
1337,Kentucky chicken,3.5,restaurant,24.5702032,46.7881703
1338,Burger King,3.6,restaurant,24.568981,46.789057
1339,Kentucky chicken,3.3,restaurant,24.5496791,46.7211729
1340,McDonald's,3.9,restaurant,24.585652,46.778468
1341,Burger,4.1,restaurant,24.5941255,46.7571175
1342,Dirati restaurants,4,restaurant,24.5957403,46.772965
1343,Liwan Restaurant,3.9,restaurant,24.5979412,46.7428886
1344,Starbucks,4.1,cafe,24.6864056,46.5826153
1345,Sundus Mall,4.3,cafe,24.6859285,46.5829623
1346,Dunkin Dontes,4.2,cafe,24.7474479,46.5703271
1347,Nafis tea,3,cafe,24.6822141,46.5613581
1348,Archi,4,cafe,24.6820928,46.5632963
1349,Sweat,5,cafe,24.6835139,46.566454
1350,Sahil enoughSaheel,4.7,cafe,24.6824722,46.5645556
1351,mood,3.9,cafe,24.6833172,46.5663464
1352,Tarf and Tarif,3.7,cafe,24.7334375,46.5748125
1353,Dunkin,3.6,cafe,24.6853984,46.5728344
1354,Fortwins,3.8,cafe,24.6850734,46.5732953
1355,Arabica Star,4.2,cafe,24.6851228,46.5734914
1356,Kinan tea,4.7,cafe,24.6851746,46.5740927
1357,Kofi legacy,3,cafe,24.7331,46.5771114
1358,Limbum,1.8,cafe,24.7363764,46.5734582
1359,Half a million,4.2,cafe,24.68495,46.574715
1360,Tea,5,cafe,24.6856397,46.5755343
1361,Joe and The Jose,4.3,cafe,24.736956,46.5736333
1362,Bojiri,2.1,cafe,24.73644,46.5743598
1363,Bronk & Land Tre,2.6,cafe,24.7362061,46.574689
1364,Domino,3.8,restaurant,24.692347,46.6049938
1365,Fire Grill,4.1,restaurant,24.6866929,46.5822539
1366,Herfy,3.7,restaurant,24.6877778,46.5858333
1367,Pergarezar,4,restaurant,24.6899693,46.5877669
1368,Thyme,4.1,restaurant,24.6934269,46.6055492
1369,Kaza Basta,3.9,restaurant,24.6939258,46.6061459
1370,McDonald's,3.9,restaurant,24.693768,46.606435
1371,Tim Hortons,4.2,restaurant,24.694819,46.6065978
1372,The Sandwich Company,3.6,restaurant,24.6936971,46.6070626
1373,Dominos Pizza,3.9,restaurant,24.6534047,46.5757043
1374,Al -Khuzami Village Complex,4.1,restaurant,24.719466,46.599991
1375,I established you,4,restaurant,24.6820822,46.6250852
1376,Subway,3.7,restaurant,24.6732998,46.6232231
1377,Grille,3.9,restaurant,24.6865472,46.5817305
1378,Subway,3.8,restaurant,24.6865996,46.5819578
1379,Hambarten,4,restaurant,24.686647,46.5819971
1380,Specialized kitchens and restaurants,3.5,restaurant,24.6879603,46.5820452
1381,A surface in the middle of his race,3,restaurant,24.6878179,46.5821114
1382,Earth Bulls,2.8,restaurant,24.6867175,46.5821828
1383,Costa Coffee,3,restaurant,24.6872294,46.5824106
1384,Cinezio,4.3,cafe,24.7513151,46.8226133
1385,Diwaniyah Qaur Al Arab,4.2,cafe,24.7531515,46.8171874
1386,Dunkin Dontes,4.1,cafe,24.7637763,46.8095967
1387,Dunkin Dontes,4.1,cafe,24.739743,46.8108113
1388,Dunkin Dontes,3.9,cafe,24.72511,46.815882
1389,House Nayef Abu Tathallah,5,cafe,24.7516627,46.8449735
1390,A Coffee Bar,4.9,cafe,24.7498445,46.8476047
1391,Shahi Faisal with Rashid,5,cafe,24.7605611,46.8410312
1392,Golden Diwaniyah for Arab Coffee,4.2,cafe,24.7603649,46.8406598
1393,He is a coffee,4.3,cafe,24.7526003,46.8373997
1394,Kofi Hui,4.3,cafe,24.7506033,46.8379826
1395,Alcafécoffeed’Lite,3,cafe,24.7505863,46.8379812
1396,Al -Aseel Nights Café,4.2,cafe,24.7505738,46.8379591
1397,I want you,3.5,cafe,24.7509759,46.8523379
1398,Saturation,5,cafe,24.7477604,46.848457
1399,Dunkin Donat,3.8,cafe,24.7505091,46.852582
1400,Hamid tea,5,cafe,24.7475408,46.8483552
1401,Anesthetic tea,4.9,cafe,24.7479658,46.8495454
1402,Dunkin Dontes,4,cafe,24.755652,46.854676
1403,D.how,4,cafe,24.7458764,46.8463864
1404,Kentucky,3.4,restaurant,24.7930658,46.8630347
1405,BerraisezerBurgerizzr,4.2,restaurant,24.792023,46.862865
1406,Domino,3.8,restaurant,24.7920608,46.8628616
1407,Romance,4.3,restaurant,24.7916555,46.862358
1408,Skrir House,4.1,restaurant,24.7549995,46.8657356
1409,Pizza and Pasta Zoalia Excellence,3,restaurant,24.791759,46.893019
1410,Falling the corner of the organizer (,4.2,restaurant,24.7922174,46.8937039
1411,Mama Meryem,3.5,restaurant,24.7954802,46.8954849
1412,The popularity of the organizer,4.5,restaurant,24.7955918,46.8954722
1413,Liquidation,3.4,restaurant,24.7954469,46.8960842
1414,My meal restaurant,3.7,restaurant,24.7935495,46.8867444
1415,Gossip,3.6,restaurant,24.7934808,46.886647
1416,Emotion of our people,4.1,restaurant,24.7946854,46.8875449
1417,Nuer's top kitchens,4.7,restaurant,24.7963142,46.8906843
1418,Witr Burger,4.7,restaurant,24.7949375,46.8876875
1419,Bukhari Kansh,4.4,restaurant,24.7951277,46.8878648
1420,Vinegar and salt,4.1,restaurant,24.7951875,46.8879375
1421,Hanin and the narration of the flag,3.6,restaurant,24.7920828,46.8852312
1422,The best hour juice,4.2,restaurant,24.7954573,46.8882462
1423,Anaam Al -Qasr Al -Mashwa,3.9,restaurant,24.7955548,46.8883438
1424,Lotan hotel and spa,4,restaurant,24.7066487,46.6417087
1425,Domino,3.8,restaurant,24.692347,46.6049938
1426,Subway,3.7,restaurant,24.6732998,46.6232231
1427,I established you,4,restaurant,24.6820822,46.6250852
1428,Algwan,4.3,restaurant,24.6635616,46.6301305
1429,The Sandwich Company,3.6,restaurant,24.6936971,46.6070626
1430,McDonald's,3.9,restaurant,24.693768,46.606435
1431,Thyme,4.1,restaurant,24.6934269,46.6055492
1432,Kaza Basta,3.9,restaurant,24.6939258,46.6061459
1433,Tim Hortons,4.2,restaurant,24.694819,46.6065978
1434,Pergarezar,4,restaurant,24.6899693,46.5877669
1435,Herfy,3.7,restaurant,24.6877778,46.5858333
1436,Fire Grill,4.1,restaurant,24.6866929,46.5822539
1437,McDonald's,4,restaurant,24.683756,46.652378
1438,Voyage Hotel,4.1,restaurant,24.69951,46.6432996
1439,Kentucky,3.9,restaurant,24.6782831,46.6557109
1440,Kentucky,3.8,restaurant,24.7107523,46.6302279
1441,Subway,3.4,restaurant,24.713297,46.622298
1442,Shawarmer,3.9,restaurant,24.7133267,46.6338494
1443,Dominos Pizza,3.9,restaurant,24.6534047,46.5757043
1444,Romance,4.2,restaurant,24.7587183,46.8141239
1445,Romance,4.2,restaurant,24.7335149,46.814627
1446,Kentucky,3.6,restaurant,24.7420704,46.8072166
1447,McDonald's,3.8,restaurant,24.743031,46.808578
1448,Kodo,3.8,restaurant,24.760348,46.812763
1449,Maestro Pizza,3.9,restaurant,24.7543854,46.823958
1450,Dominos Pizza,3.8,restaurant,24.7542445,46.8240726
1451,Canton,3.5,restaurant,24.754195,46.8240152
1452,Kaza Basta Renaissance,4,restaurant,24.7541144,46.8238494
1453,Hashem Corner Restaurant,3.9,restaurant,24.7541275,46.8163948
1454,Kentucky,3.6,restaurant,24.7508206,46.8230012
1455,McDonald's,3.7,restaurant,24.750081,46.822255
1456,Kentucky,3.6,restaurant,24.7670341,46.8061705
1457,Herfy,3.6,restaurant,24.7651217,46.8092281
1458,Herfy,3.7,restaurant,24.7421129,46.8263617
1459,Manoosha |Rated,3.7,restaurant,24.7683138,46.8093367
1460,Dominos Pizza,4,restaurant,24.7411934,46.8270303
1461,Dominos Pizza,4,restaurant,24.7673549,46.8067499
1462,Hardez,3.8,restaurant,24.7663125,46.8050625
1463,Dominos Pizza,3.9,restaurant,24.7433812,46.8091524
1464,Senate,1,cafe,24.791759,46.893019
1465,Anza and Shammar one 💯,3,cafe,24.791759,46.893019
1466,Diwan Hamid Abu Musalah,4.8,cafe,24.7902606,46.8970649
1467,Omar Sahl Al -Qablan 2,3,cafe,24.7955746,46.8907307
1468,Kafia Buller,4.4,cafe,24.7956333,46.8955356
1469,The Legend of Shisha Cafe,4.9,cafe,24.7933815,46.8866873
1470,Naris Kofi,3.8,cafe,24.7941875,46.8871875
1471,Nona juices,5,cafe,24.7965509,46.8908554
1472,Barn's |Barnes - Nadwa 2,3,cafe,24.7962074,46.888654
1473,Moroccan mood,5,cafe,24.7964332,46.8889091
1474,Dan Cafe,3.9,cafe,24.7898373,46.8839549
1475,Strickv,5,cafe,24.789402,46.883728
1476,Barn,3.9,cafe,24.7966813,46.8889169
1477,Asad Lounge step,3.7,cafe,24.7885463,46.8829607
1478,"Nilofer for juices, caramel and pearls",5,cafe,24.7933648,46.8840437
1479,Barn's |Barn,3.5,cafe,24.785848,46.8809653
1480,Lounge Cafe 31,3.4,cafe,24.7948609,46.881629
1481,Diwaniya Hat,3.7,cafe,24.7948697,46.8816145
1482,Long dollar,4,cafe,24.7947525,46.8815233
1483,Mesca,3,cafe,24.7943748,46.8810295
1484,Cinezio,4.3,cafe,24.7513151,46.8226133
1485,Diwaniyah Qaur Al Arab,4.2,cafe,24.7531515,46.8171874
1486,Pour,4.1,cafe,24.7742181,46.8551965
1487,Starbucks for Vincir,3,cafe,24.7580462,46.8571089
1488,Dunkin Dontes,4,cafe,24.755652,46.854676
1489,Al -Nawar Al -Nawar Cafe Cafe,4.5,cafe,24.7868755,46.8705261
1490,Coffee strings,3.4,cafe,24.7885508,46.8673539
1491,Muhammad Faisal Café Branch 2,3.6,cafe,24.7885535,46.8674227
1492,Knight Spectrum Cafe Cafe,3.9,cafe,24.788538,46.8674884
1493,50 Copes,3.9,cafe,24.7841894,46.8744988
1494,Java Cafe,3.3,cafe,24.7529385,46.8608148
1495,Cafe and Lueli Najd tea,5,cafe,24.7879377,46.8705661
1496,Shahi Faisal with Rashid,5,cafe,24.7605611,46.8410312
1497,Golden Diwaniyah for Arab Coffee,4.2,cafe,24.7603649,46.8406598
1498,Java Time,3,cafe,24.7514503,46.8574556
1499,Kofi Naris Naees,3.6,cafe,24.7925348,46.8626966
1500,Dolk Lounge Mizila,3.9,cafe,24.7739921,46.8355285
1501,"Diwaniya, how are the councils",3.4,cafe,24.7769085,46.8359278
1502,I want you,3.5,cafe,24.7509759,46.8523379
1503,Dunkin Donat,3.8,cafe,24.7505091,46.852582
1504,Dunkin Dontes,4,cafe,24.6441542,46.5543706
1505,Hall - Hall,4.7,cafe,24.6674647,46.5395181
1506,Moroccan mood,3.4,cafe,24.6677853,46.5407313
1507,Cinnabon,3.4,cafe,24.667831,46.541205
1508,The shed LoungeThe SHED,4,cafe,24.6665484,46.5355112
1509,Shahi fire,4,cafe,24.6675931,46.5381385
1510,Dunkin Dontes,3.4,cafe,24.6663421,46.534533
1511,Shahi and coffee Anas,5,cafe,24.6666656,46.5338152
1512,Seen,4.2,cafe,24.6659499,46.5328764
1513,One Pearsant,4.8,cafe,24.6657501,46.5315535
1514,Blacklist Lounge,3.3,cafe,24.6491065,46.5480694
1515,Coffee,3.6,cafe,24.6690093,46.5459514
1516,Shahi shop,4.7,cafe,24.6691569,46.5466251
1517,Kadlig ’Sufficient,4.7,cafe,24.6647246,46.5279386
1518,De Cafe,4.2,cafe,24.6472851,46.5485764
1519,The Myth Cafe - Myth Cafe,4.6,cafe,24.6491408,46.5511516
1520,Love grains cafe,4.4,cafe,24.6491246,46.5512156
1521,Feto is enough,4.3,cafe,24.6700073,46.5489153
1522,Euff enough,4.7,cafe,24.6532313,46.5550734
1523,Gloria Jeans Cofies,4.4,cafe,24.6641634,46.5264452
1524,Sundus Mall,4.3,cafe,24.6859285,46.5829623
1525,Starbucks,4.1,cafe,24.6864056,46.5826153
1526,Cinnabon,3.9,cafe,24.694781,46.605478
1527,Starbucks,4.2,cafe,24.6941693,46.6074157
1528,Tim Hortons,4.2,cafe,24.694819,46.6065978
1529,I established you,4,cafe,24.6820822,46.6250852
1530,Dunkin Dontes,4,cafe,24.6340664,46.6185667
1531,Dunkin Dontes,4,cafe,24.6441542,46.5543706
1532,It is sufficient,3,cafe,24.6610249,46.592477
1533,Our nakedness,4.7,cafe,24.6543033,46.5936053
1534,Our nakedness,4.8,cafe,24.6542344,46.593608
1535,Shahi in the brain,4.4,cafe,24.6536958,46.5919859
1536,Coffee,4.2,cafe,24.6536903,46.5943524
1537,Beirut berries,4.2,cafe,24.6538269,46.5886346
1538,Barn,3.7,cafe,24.6531258,46.5932679
1539,BRSK BRSK,4.6,cafe,24.6530872,46.5927732
1540,Diwaniyah Cafe is the reluctance of how,5,cafe,24.6530484,46.5929183
1541,Bloom café,4.2,cafe,24.6531433,46.590322
1542,Saya tea,4,cafe,24.6537921,46.5879395
1543,Lavista Cafe,3.9,cafe,24.6529248,46.5904067
1544,Romance,4.2,restaurant,24.7587183,46.8141239
1545,Dominos Pizza,3.8,restaurant,24.7804513,46.8271099
1546,Subway,3.9,restaurant,24.7780986,46.823825
1547,Kentucky,3.4,restaurant,24.7930658,46.8630347
1548,Romance,4.3,restaurant,24.7916555,46.862358
1549,BerraisezerBurgerizzr,4.2,restaurant,24.792023,46.862865
1550,Domino,3.8,restaurant,24.7920608,46.8628616
1551,Excellent Fleet Restaurant - Al Gulf Restaurant - Al Khaleej District,3.5,restaurant,24.7799881,46.8104991
1552,Maestro Pizza,3.9,restaurant,24.7543854,46.823958
1553,Dominos Pizza,3.8,restaurant,24.7542445,46.8240726
1554,Canton,3.5,restaurant,24.754195,46.8240152
1555,Kaza Basta Renaissance,4,restaurant,24.7541144,46.8238494
1556,Subway,4,restaurant,24.7905185,46.8090005
1557,Manoosha |Rated,3.7,restaurant,24.7683138,46.8093367
1558,Maestro Pizza,3.7,restaurant,24.7995225,46.8142878
1559,Kodo,3.8,restaurant,24.760348,46.812763
1560,Herfy,3.6,restaurant,24.7651217,46.8092281
1561,Dominos Pizza,4,restaurant,24.7673549,46.8067499
1562,Kentucky,3.6,restaurant,24.7508206,46.8230012
1563,Kentucky,3.6,restaurant,24.7670341,46.8061705
1564,I established you,4,cafe,24.6820822,46.6250852
1565,Starbucks,4.2,cafe,24.6941693,46.6074157
1566,Tim Hortons,4.2,cafe,24.694819,46.6065978
1567,Cinnabon,3.9,cafe,24.694781,46.605478
1568,Sundus Mall,4.3,cafe,24.6859285,46.5829623
1569,Starbucks,4.1,cafe,24.6864056,46.5826153
1570,Starbucks Cafe,4.3,cafe,24.7121119,46.6223982
1571,Dunkin Dontes,4,cafe,24.7131356,46.6338002
1572,Dunkin Dontes,4,cafe,24.6340664,46.6185667
1573,Starbucks,4.1,cafe,24.702358,46.6506479
1574,Dunkin Dontes,4,cafe,24.6489848,46.6519742
1575,Dolce Ragoza,4.5,cafe,24.6779002,46.6231173
1576,Dunkin ' - Dunkin,4.3,cafe,24.6731716,46.6231321
1577,Starbucks,4.1,cafe,24.6734719,46.6232424
1578,I raised enough,4.3,cafe,24.6735252,46.6232696
1579,W coffee drum,4.2,cafe,24.6743101,46.6235622
1580,Ith is sufficient Oud Square,4.3,cafe,24.6750834,46.6246415
1581,Starbucks,4.2,cafe,24.6754786,46.6247847
1582,Caribu Coffee,4.3,cafe,24.680462,46.623305
1583,Al -Kindy Portal No. 13,4.3,cafe,24.6799246,46.6236531
1584,Kentucky,3.4,restaurant,24.7930658,46.8630347
1585,Skrir House,4.1,restaurant,24.7549995,46.8657356
1586,Romance,4.3,restaurant,24.7916555,46.862358
1587,BerraisezerBurgerizzr,4.2,restaurant,24.792023,46.862865
1588,Domino,3.8,restaurant,24.7920608,46.8628616
1589,Dominos Pizza,3.8,restaurant,24.7804513,46.8271099
1590,Subway,3.9,restaurant,24.7780986,46.823825
1591,Dominos Pizza,3.8,restaurant,24.7542445,46.8240726
1592,Maestro Pizza,3.9,restaurant,24.7543854,46.823958
1593,Canton,3.5,restaurant,24.754195,46.8240152
1594,Kaza Basta Renaissance,4,restaurant,24.7541144,46.8238494
1595,Hot pizza,3.9,restaurant,24.7378894,46.8437018
1596,Kentucky,3.6,restaurant,24.7508206,46.8230012
1597,McDonald's,3.7,restaurant,24.750081,46.822255
1598,Herfy,3.7,restaurant,24.7421129,46.8263617
1599,Dominos Pizza,4,restaurant,24.7411934,46.8270303
1600,Romance,4.2,restaurant,24.7587183,46.8141239
1601,Hashem Corner Restaurant,3.9,restaurant,24.7541275,46.8163948
1602,Kodo,3.8,restaurant,24.760348,46.812763
1603,Herfy,3.7,restaurant,24.7281426,46.8509662
1604,Domino,3.8,restaurant,24.692347,46.6049938
1605,Fire Grill,4.1,restaurant,24.6866929,46.5822539
1606,Herfy,3.7,restaurant,24.6877778,46.5858333
1607,Pergarezar,4,restaurant,24.6899693,46.5877669
1608,Dominos Pizza,3.9,restaurant,24.6534047,46.5757043
1609,Thyme,4.1,restaurant,24.6934269,46.6055492
1610,Pigeon time restaurants,4.2,restaurant,24.6383518,46.5586793
1611,Kaza Basta,3.9,restaurant,24.6939258,46.6061459
1612,McDonald's,3.9,restaurant,24.693768,46.606435
1613,Tim Hortons,4.2,restaurant,24.694819,46.6065978
1614,The Sandwich Company,3.6,restaurant,24.6936971,46.6070626
1615,Ice Land ice cream,3,restaurant,24.682336,46.5625215
1616,Tika Wei,4.3,restaurant,24.6823993,46.5645845
1617,McDonald's,5,restaurant,24.6831216,46.5672228
1618,McDonald's |McDonald's,3,restaurant,24.68317,46.5674296
1619,Arbies,4.6,restaurant,24.6842275,46.5723653
1620,The antique house restaurants,4.8,restaurant,24.6720959,46.5537919
1621,One minute burger,5,restaurant,24.6855472,46.5734
1622,Fresh Fast,3.7,restaurant,24.6855798,46.5735066
1623,Karak my duties for fast food,3.8,restaurant,24.6855474,46.5735581
1624,Mama Benz Cafe,4.2,cafe,24.5584375,46.6375625
1625,Dunkin Dontes,4.1,cafe,24.5649382,46.6501164
1626,Artal - artal,4,cafe,24.5661473,46.63125
1627,Mazaya coffee,4.3,cafe,24.5699438,46.6393215
1628,Filter toas for the competent coffee,4.4,cafe,24.570857,46.6232618
1629,Dunkin Dontes,4,cafe,24.573432,46.6634154
1630,Authentic tea,4.8,cafe,24.5457038,46.6478996
1631,entity,4,cafe,24.5459243,46.6480029
1632,Figoual Cafe,4.5,cafe,24.5444812,46.6485248
1633,Sufficient Haifa,4.5,cafe,24.5414727,46.6484025
1634,Shahi Abu Marim,5,cafe,24.5371163,46.6450665
1635,Cafe Style,3.9,cafe,24.5474795,46.6482586
1636,Les MooreSpecialized coffee,4.7,cafe,24.5416123,46.6490761
1637,Bari Lounge,3.6,cafe,24.5472453,46.648628
1638,Caviano,4,cafe,24.5368129,46.6467385
1639,Boiling coffee coffee,3,cafe,24.5363893,46.6462324
1640,Coffee,4.3,cafe,24.553037,46.638628
1641,Folding toasterTaii Roasttery,4.8,cafe,24.5526757,46.6361952
1642,Wadi Al -Musafer Café,4.6,cafe,24.5526758,46.6361331
1643,Tea,5,cafe,24.5405442,46.6502613
1644,Domino,3.8,restaurant,24.692347,46.6049938
1645,Restaurants and kitchens,3.6,restaurant,24.6368753,46.5885425
1646,Dominos Pizza,3.9,restaurant,24.6534047,46.5757043
1647,Fire Grill,4.1,restaurant,24.6866929,46.5822539
1648,Herfy,3.7,restaurant,24.6877778,46.5858333
1649,Pergarezar,4,restaurant,24.6899693,46.5877669
1650,Subway,3.7,restaurant,24.6732998,46.6232231
1651,Thyme,4.1,restaurant,24.6934269,46.6055492
1652,BerraisezerBurgerizzr,4,restaurant,24.629739,46.6031362
1653,Maestro Pizza,3.8,restaurant,24.6298199,46.6036514
1654,McDonald's,3.9,restaurant,24.693768,46.606435
1655,Kaza Basta,3.9,restaurant,24.6939258,46.6061459
1656,The Sandwich Company,3.6,restaurant,24.6936971,46.6070626
1657,Algwan,4.3,restaurant,24.6635616,46.6301305
1658,Domino,3.9,restaurant,24.6304552,46.6080265
1659,Romance -Duhr of milk,4.4,restaurant,24.6347791,46.5683016
1660,Tim Hortons,4.2,restaurant,24.694819,46.6065978
1661,Sheikh MandiSheikh almandi,3.7,restaurant,24.632406,46.6135967
1662,I established you,4,restaurant,24.6820822,46.6250852
1663,Kentucky chicken,3.4,restaurant,24.6326132,46.5663484
1664,Wings 2 Hotel Charter,3.1,cafe,24.8007012,46.7959488
1665,Starbucks,3.9,cafe,24.7899442,46.8078811
1666,Dunkin Donez inside the colleges of vision,3.9,cafe,24.792794,46.8016869
1667,Crabbi Karim,4.1,cafe,24.8063599,46.8029455
1668,Dunkin Dontes,4.1,cafe,24.7637763,46.8095967
1669,Diwaniyah Qaur Al Arab,4.2,cafe,24.7531515,46.8171874
1670,Cinezio,4.3,cafe,24.7513151,46.8226133
1671,Away check,3.4,cafe,24.7799098,46.7881131
1672,Tea,4.7,cafe,24.7907317,46.8381611
1673,Sand tea,5,cafe,24.7895863,46.8328644
1674,Shahi Raz,5,cafe,24.7890226,46.8332302
1675,"For the sale of firewood, charcoal, Shahi and Karak Abdulaziz Al -Shahrani milk",5,cafe,24.7886975,46.8295237
1676,Bid Coffee,4.6,cafe,24.7890478,46.8291461
1677,Insect,4.5,cafe,24.7890719,46.8289682
1678,Iman for tea and coffee,5,cafe,24.796691,46.8430018
1679,Hala Al -Dala,4.1,cafe,24.7829674,46.8335485
1680,Egery tea,1,cafe,24.786981,46.8262264
1681,Gulf Sea session,3.9,cafe,24.7803096,46.8321458
1682,Coffee,3.7,cafe,24.7975022,46.8466649
1683,Sharjah Diwaniya,4.3,cafe,24.7857423,46.8239705
1684,Starbucks,3.9,cafe,24.7899442,46.8078811
1685,Dunkin Dontes,4.1,cafe,24.7637763,46.8095967
1686,Cinezio,4.3,cafe,24.7513151,46.8226133
1687,Diwaniyah Qaur Al Arab,4.2,cafe,24.7531515,46.8171874
1688,Dunkin Donez inside the colleges of vision,3.9,cafe,24.792794,46.8016869
1689,Crabbi Karim,4.1,cafe,24.8063599,46.8029455
1690,"Diwaniya, how are the councils",3.4,cafe,24.7769085,46.8359278
1691,Hala Al -Dala,4.1,cafe,24.7829674,46.8335485
1692,Dolk Lounge Mizila,3.9,cafe,24.7739921,46.8355285
1693,Gulf Sea session,3.9,cafe,24.7803096,46.8321458
1694,Moroccan taste is sufficient,3.4,cafe,24.7791048,46.8314153
1695,Oliver,4.1,cafe,24.7796217,46.8293164
1696,Kafi Shop,3,cafe,24.7801193,46.8285907
1697,Tea,4.7,cafe,24.7907317,46.8381611
1698,Shahi Raz,5,cafe,24.7890226,46.8332302
1699,ChildrenSpecialized coffee,4.7,cafe,24.7805349,46.8279298
1700,Najd divisions,4.2,cafe,24.7805349,46.8279298
1701,Daily CUP Daily Kab,5,cafe,24.7797406,46.827667
1702,Sand tea,5,cafe,24.7895863,46.8328644
1703,Council of Gallery,5,cafe,24.7769204,46.8275479
1704,Starbucks,4.1,cafe,24.6864056,46.5826153
1705,Sundus Mall,4.3,cafe,24.6859285,46.5829623
1706,Dunkin Dontes,4,cafe,24.6441542,46.5543706
1707,Cinnabon,3.9,cafe,24.694781,46.605478
1708,Tim Hortons,4.2,cafe,24.694819,46.6065978
1709,Starbucks,4.2,cafe,24.6941693,46.6074157
1710,Archi,4,cafe,24.6820928,46.5632963
1711,Nafis tea,3,cafe,24.6822141,46.5613581
1712,Sahil enoughSaheel,4.7,cafe,24.6824722,46.5645556
1713,mood,3.9,cafe,24.6833172,46.5663464
1714,Sweat,5,cafe,24.6835139,46.566454
1715,Sadar is sufficient,4.6,cafe,24.6715642,46.5617449
1716,Dunkin,3.6,cafe,24.6853984,46.5728344
1717,Fortwins,3.8,cafe,24.6850734,46.5732953
1718,Arabica Star,4.2,cafe,24.6851228,46.5734914
1719,Kinan tea,4.7,cafe,24.6851746,46.5740927
1720,Shahi Al -Dahna buffet,3.2,cafe,24.6713037,46.5529135
1721,Half a million,4.2,cafe,24.68495,46.574715
1722,Tea,5,cafe,24.6856397,46.5755343
1723,mouth,3,cafe,24.6781921,46.5770219
1724,Fire Grill,4.1,restaurant,24.6866929,46.5822539
1725,Herfy,3.5,restaurant,24.7449224,46.52985
1726,Herfy,3.7,restaurant,24.6877778,46.5858333
1727,Pergarezar,4,restaurant,24.6899693,46.5877669
1728,Jean Burger,3.7,restaurant,24.749091,46.57158
1729,House of the grill,3.8,restaurant,24.7489702,46.5721875
1730,Ice Land ice cream,3,restaurant,24.682336,46.5625215
1731,Tika Wei,4.3,restaurant,24.6823993,46.5645845
1732,McDonald's,5,restaurant,24.6831216,46.5672228
1733,McDonald's |McDonald's,3,restaurant,24.68317,46.5674296
1734,One minute burger,5,restaurant,24.6855472,46.5734
1735,Kofi Bateel,4.9,restaurant,24.734333,46.5745713
1736,Fresh Fast,3.7,restaurant,24.6855798,46.5735066
1737,Gatuti and Karak the road,4.5,restaurant,24.6855895,46.5735521
1738,Karak my duties for fast food,3.8,restaurant,24.6855474,46.5735581
1739,Arbies,4.6,restaurant,24.6842275,46.5723653
1740,Altabiano,4.1,restaurant,24.7366108,46.5732675
1741,Villa Mams,4.4,restaurant,24.7366751,46.5735886
1742,Jean Burger,3,restaurant,24.6848136,46.5748192
1743,Long Shim,4.2,restaurant,24.7367378,46.5739043
1744,Cinezio,4.3,cafe,24.7513151,46.8226133
1745,Diwaniyah Qaur Al Arab,4.2,cafe,24.7531515,46.8171874
1746,Dunkin Dontes,4.1,cafe,24.7637763,46.8095967
1747,Dunkin Dontes,4.1,cafe,24.739743,46.8108113
1748,Crabbi Karim,4.1,cafe,24.7437897,46.7902946
1749,Dunkin Dontes,3.9,cafe,24.72511,46.815882
1750,Starbucks,3.9,cafe,24.7899442,46.8078811
1751,Away check,3.4,cafe,24.7799098,46.7881131
1752,Dunkin Donez inside the colleges of vision,3.9,cafe,24.792794,46.8016869
1753,Cinnabon,3.7,cafe,24.773558,46.776495
1754,Denkin,3,cafe,24.7542526,46.8241135
1755,It spreads specialized coffee and baked,4.1,cafe,24.7542258,46.8240581
1756,And Ans Lounge,4.3,cafe,24.7544065,46.824978
1757,I will not understand Est Riad,5,cafe,24.7544891,46.8254923
1758,Diwaniya Cafe Time,3.9,cafe,24.759244,46.8264355
1759,Luster,3.6,cafe,24.7591937,46.8266865
1760,Crabbi Karim,4,cafe,24.7528125,46.8211875
1761,Categorical,3,cafe,24.7561715,46.8174494
1762,Caribu Coffee,4,cafe,24.752641,46.82154
1763,Sheria Cafe,3.7,cafe,24.7621976,46.8201351
1764,Kentucky,3.3,restaurant,24.6359595,46.5339216
1765,Pigeon time restaurants,4.2,restaurant,24.6383518,46.5586793
1766,Dominos Pizza,3.9,restaurant,24.6534047,46.5757043
1767,Abu Jabara,4.1,restaurant,24.6325413,46.5648429
1768,Jean Burger,3.7,restaurant,24.632401,46.56467
1769,Saudi restaurant,3.7,restaurant,24.6284193,46.5583919
1770,Restaurants and kitchens of the golden how for popular food,3.8,restaurant,24.6270715,46.5560295
1771,Romance -Duhr of milk,4.4,restaurant,24.6347791,46.5683016
1772,BerraisezerBurgerizzr,3.9,restaurant,24.629409,46.561442
1773,McDonald's,3.7,restaurant,24.631477,46.56466
1774,Hambarten,3.9,restaurant,24.6323112,46.5657878
1775,Kentucky chicken,3.4,restaurant,24.6326132,46.5663484
1776,Maestro Pizza Restaurant,3.9,restaurant,24.6268875,46.55749
1777,Buffeta Al -Awali,3.2,restaurant,24.6674561,46.5394572
1778,Bader grills,4.4,restaurant,24.6674787,46.5395677
1779,The taste of the jar,3.9,restaurant,24.6665334,46.5356562
1780,Baltilah and Gizani,5,restaurant,24.6679546,46.5415428
1781,Brussam Al -Muhdia Al -Mahdia,4.1,restaurant,24.6679671,46.5393962
1782,Shahi Ali,5,restaurant,24.6681721,46.5422061
1783,My meals Abbas,3.7,restaurant,24.6682657,46.5429645
1784,Burger King,3.8,restaurant,24.5681274,46.6212052
1785,Mama Noura,4.1,restaurant,24.5717473,46.6653609
1786,Robins knife,3.8,restaurant,24.5464541,46.6501654
1787,Fawal Taif,3.8,restaurant,24.5469755,46.6500419
1788,Grilled burger,4,restaurant,24.5468503,46.650649
1789,Dominos Pizza,4,restaurant,24.5452788,46.6534447
1790,Berger,3.8,restaurant,24.5389028,46.6526725
1791,Liwan Restaurant,4,restaurant,24.5441109,46.6545276
1792,McDonald's,3.3,restaurant,24.557901,46.637203
1793,Kentucky chicken,3.7,restaurant,24.5582222,46.6362541
1794,light,3.2,restaurant,24.5587846,46.6373493
1795,Hardez,4.1,restaurant,24.5589375,46.6370625
1796,Kentucky,3.1,restaurant,24.5358164,46.6566777
1797,McDonald's,3.9,restaurant,24.537533,46.657906
1798,Subway,3.4,restaurant,24.537588,46.657985
1799,Maestro Pizza,3.9,restaurant,24.5375771,46.6582803
1800,Herfy,3.5,restaurant,24.5388059,46.6592315
1801,Burger King,3.7,restaurant,24.537538,46.659791
1802,Artal - artal,4,restaurant,24.5661473,46.63125
1803,Domino,3.8,restaurant,24.5663525,46.6252652
1804,Forum,4.2,cafe,24.6855612,46.7385654
1805,Aroma Coffee,4.5,cafe,24.6866676,46.6806202
1806,Sun Coffee Company,4,cafe,24.6992238,46.7384561
1807,Caramel lobby Lounge,4.3,cafe,24.700242,46.682188
1808,Dunkin Dontes,4.2,cafe,24.661729,46.70107
1809,Dunkin,4.1,cafe,24.7043052,46.6821142
1810,Crabbi Karim Rabwah,4.3,cafe,24.6866533,46.7472634
1811,D.how,4,cafe,24.6606875,46.7251875
1812,Dunkin Dontes,4.1,cafe,24.6851365,46.7443042
1813,Dunkin Dontes,4.2,cafe,24.717241,46.694829
1814,Grome Hotel,4,cafe,24.6564725,46.7108184
1815,Starbucks,4.1,cafe,24.704945,46.679131
1816,Starbucks,4.1,cafe,24.6763674,46.676509
1817,Totti Cafe,4.1,cafe,24.6925045,46.6734398
1818,Dunkin,4.2,cafe,24.676241,46.675539
1819,Higher Executive Hotel,4,cafe,24.7084843,46.6779717
1820,Lamud,2.9,cafe,24.6929447,46.6703665
1821,Dunkin Dontes,4.3,cafe,24.6699945,46.6748964
1822,Tim Hortons,4.2,cafe,24.6959454,46.6699101
1823,Tim Hortons,4.2,cafe,24.7163056,46.6822616
1824,"Onaza Cafe, King Abdullah Road",4,cafe,24.7341617,46.6781789
1825,Starbucks,4.1,cafe,24.6988,46.6899
1826,Tim Hortons,4.2,cafe,24.6986875,46.6898125
1827,Dunkin,4.2,cafe,24.6987999,46.6902205
1828,Lamud,2.9,cafe,24.6929447,46.6703665
1829,Totti Cafe,4.1,cafe,24.6925045,46.6734398
1830,Starbucks,4.1,cafe,24.7014002,46.6963208
1831,Starbucks,4.1,cafe,24.702358,46.6506479
1832,Caribu Kafi,4.2,cafe,24.702843,46.699818
1833,Starbucks,4.1,cafe,24.7398821,46.68208
1834,In chocolate,3.7,cafe,24.6923761,46.6932153
1835,Caribu Coffee,4.1,cafe,24.732308,46.696931
1836,Aroma Coffee,4.5,cafe,24.6866676,46.6806202
1837,Dunkin,4.2,cafe,24.691997,46.6934184
1838,The elite cup roasted,4.3,cafe,24.7395572,46.6881592
1839,Starbucks,4,cafe,24.742735,46.6799489
1840,Tim Hortons,4,cafe,24.743245,46.6803325
1841,Starbucks,4.1,cafe,24.697319,46.7019081
1842,Dolce Ragoza,4.4,cafe,24.6965195,46.7034
1843,Causing,4.1,cafe,24.7353112,46.6473039
1844,Starbucks,4.1,cafe,24.6763674,46.676509
1845,Dunkin,4.2,cafe,24.676241,46.675539
1846,Starbucks,4.1,cafe,24.7014002,46.6963208
1847,Zul Sai,3.7,cafe,24.713591,46.6755535
1848,Tim Hortons,4.2,cafe,24.7136379,46.6751825
1849,Dunkin Dontes,4.2,cafe,24.7081879,46.6616337
1850,Dunkin,4.2,cafe,24.6806895,46.6944797
1851,Starbucks,4.2,cafe,24.714894,46.6778172
1852,Caribu Kafi,4.2,cafe,24.702843,46.699818
1853,Multen,4.1,cafe,24.6743433,46.6681479
1854,Starbucks,4.1,cafe,24.697319,46.7019081
1855,Tim Hortons,4.2,cafe,24.7163056,46.6822616
1856,Dolce Ragoza,4.4,cafe,24.6965195,46.7034
1857,Dunkin Dontes,4.3,cafe,24.6699945,46.6748964
1858,Starbucks,4.1,cafe,24.702358,46.6506479
1859,Dunkin Dontes,4.2,cafe,24.717241,46.694829
1860,Godfa,4.2,cafe,24.7187069,46.6578857
1861,Dunkin Dontes,4.1,cafe,24.7257743,46.681398
1862,Dunkin Dontes,4.1,cafe,24.6901547,46.7124241
1863,Tim Hortones,4.1,cafe,24.6898985,46.7136312
1864,In chocolate,3.7,cafe,24.6923761,46.6932153
1865,Tim Hortons,4.2,cafe,24.7163056,46.6822616
1866,Starbucks,4.1,cafe,24.7014002,46.6963208
1867,Dunkin,4.2,cafe,24.691997,46.6934184
1868,Dunkin Dontes,4.2,cafe,24.7081879,46.6616337
1869,Caribu Kafi,4.2,cafe,24.702843,46.699818
1870,Starbucks,4.1,cafe,24.697319,46.7019081
1871,Dunkin Dontes,4.2,cafe,24.717241,46.694829
1872,Continent Oasis Hotel,4,cafe,24.680947,46.689278
1873,Dolce Ragoza,4.4,cafe,24.6965195,46.7034
1874,Dunkin,4.2,cafe,24.6806895,46.6944797
1875,Starbucks,4.1,cafe,24.6763674,46.676509
1876,Dunkin Dontes,4.1,cafe,24.7257743,46.681398
1877,Dunkin,4.2,cafe,24.676241,46.675539
1878,Starbucks,4.1,cafe,24.702358,46.6506479
1879,Godfa,4.2,cafe,24.7187069,46.6578857
1880,Multen,4.1,cafe,24.6743433,46.6681479
1881,Sultan of coffee,3.9,cafe,24.7212589,46.6560713
1882,Starbucks,4.1,cafe,24.73049,46.671662
1883,White foam cafe,3.8,cafe,24.7300841,46.6946022
1884,Kodo,3.7,restaurant,24.7121198,46.6751598
1885,Canton,3.7,restaurant,24.7113861,46.6743468
1886,Chicara Indian Restaurant,3.9,restaurant,24.7127686,46.6710911
1887,The Grill,3.9,restaurant,24.7109216,46.6739435
1888,Higher Executive Hotel,4,restaurant,24.7084843,46.6779717
1889,Nobo Riyadh Hotel,4.3,restaurant,24.7063358,46.6757095
1890,Tim Hortons,4.2,restaurant,24.7163056,46.6822616
1891,Greens Residence,3.9,restaurant,24.7065844,46.6792416
1892,Cordiality,3.8,restaurant,24.707874,46.6643194
1893,Burger boutique,4.1,restaurant,24.7029535,46.6786015
1894,Dominos Pizza,4.1,restaurant,24.7186865,46.6860353
1895,Jean Burger Specialist,3.7,restaurant,24.704291,46.665477
1896,Cleans & Glut,4.2,restaurant,24.70545,46.685661
1897,Texas chicken,4.4,restaurant,24.7082076,46.6882395
1898,House of the grill,3.8,restaurant,24.6997821,46.6713131
1899,Sama Lounge,4.1,restaurant,24.7006847,46.6822636
1900,Godfa,4.2,restaurant,24.7187069,46.6578857
1901,Arban Ratorna,3.7,restaurant,24.7059055,46.6885461
1902,Maestro Pizza,4.1,restaurant,24.7076481,46.6895432
1903,Dominos Pizza,4.1,restaurant,24.7062757,46.6888159
1904,56 Avenue Diner,4.1,restaurant,24.6983522,46.6822436
1905,Yukari,4.2,restaurant,24.6978109,46.6835542
1906,Greens Residence,3.9,restaurant,24.7065844,46.6792416
1907,Dama,3.8,restaurant,24.6969836,46.683986
1908,Nobo Riyadh Hotel,4.3,restaurant,24.7063358,46.6757095
1909,Porter House Restaurant,4.2,restaurant,24.694002,46.6788305
1910,House of the grill,3.8,restaurant,24.6997821,46.6713131
1911,Delly taste restaurant,4,restaurant,24.6949445,46.683075
1912,Higher Executive Hotel,4,restaurant,24.7084843,46.6779717
1913,Cleans & Glut,4.2,restaurant,24.70545,46.685661
1914,La Rostika Petzarea,4.1,restaurant,24.6945896,46.6834839
1915,Vivenea Lounge,4,restaurant,24.6982024,46.6869432
1916,Fire Grill,4.2,restaurant,24.6982266,46.6869797
1917,Pergarezar,4,restaurant,24.698474,46.669224
1918,Our lost,3.7,restaurant,24.6991321,46.6891981
1919,Tim Hortons,4.2,restaurant,24.6959454,46.6699101
1920,Sinshri Burger,4.3,restaurant,24.698376,46.6894068
1921,Totti Cafe,4.1,restaurant,24.6925045,46.6734398
1922,Arban Ratorna,3.7,restaurant,24.7059055,46.6885461
1923,Tim Hortons,4.2,restaurant,24.6986875,46.6898125
1924,Residence Keynes,4.4,restaurant,24.689411,46.673702
1925,Dama,3.8,restaurant,24.6969836,46.683986
1926,Yukari,4.2,restaurant,24.6978109,46.6835542
1927,Flavors to serve meals throughout the day,4.3,restaurant,24.7002337,46.6821702
1928,McDonald's,3.2,restaurant,24.692004,46.670226
1929,Kentucky,3.8,restaurant,24.6927195,46.6853854
1930,Tim Hortons,4.2,restaurant,24.6959454,46.6699101
1931,Bus Louisiana Kitchen,4.7,restaurant,24.6920461,46.6698431
1932,Sama Lounge,4.1,restaurant,24.7006847,46.6822636
1933,Makani Restaurant,3.4,restaurant,24.6874508,46.6813109
1934,Badz Road,4.1,restaurant,24.6874162,46.681247
1935,Canton,3.8,restaurant,24.6914252,46.6698595
1936,Bath Abdo,4.2,restaurant,24.6871644,46.6807426
1937,House of the grill,3.8,restaurant,24.6997821,46.6713131
1938,Payo,4.2,restaurant,24.6912897,46.6695474
1939,The Globe,4,restaurant,24.6898068,46.6851121
1940,Kaza Basta,4,restaurant,24.6920807,46.6689931
1941,Charles Feli Stex,3,restaurant,24.6927655,46.6687977
